{
  "updatedAt": "2026-07-20T08:48:42.433Z",
  "cities": [
    {
      "key": "nicosia",
      "label": {
        "en": "Nicosia",
        "el": "Λευκωσία",
        "ru": "Никосия"
      },
      "cafes": [
        {
          "cafe": "Pi Baked & Brew",
          "freddo": 1.9,
          "address": "Stasikratous 45A",
          "lat": 35.1651378,
          "lng": 33.3631021,
          "url": "https://wolt.com/en/cyp/nicosia/restaurant/pi-baked-brew"
        },
        {
          "cafe": "Bake On Wood",
          "freddo": 2,
          "address": "Archbishop Makarios III, 19a",
          "lat": 35.11667357,
          "lng": 33.37868972,
          "url": "https://wolt.com/en/cyp/nicosia/restaurant/bake-on-wood"
        },
        {
          "cafe": "Energy Coffee by Route 66",
          "freddo": 2.2,
          "address": "Arch. Makarios III Avenue, 89",
          "lat": 35.16095254,
          "lng": 33.37078161,
          "url": "https://wolt.com/en/cyp/nicosia/restaurant/energy-coffee-by-route-66"
        },
        {
          "cafe": "Old Town Yiannis Canteen",
          "freddo": 2.2,
          "address": "Peonos 1",
          "lat": 35.17296307,
          "lng": 33.36920577,
          "url": "https://wolt.com/en/cyp/nicosia/restaurant/old-town-yiannis-canteen"
        },
        {
          "cafe": "You Coffee Latsia",
          "freddo": 2.2,
          "address": "Leoforos Archiepiskopou Makariou 115",
          "lat": 35.10599861,
          "lng": 33.38550091,
          "url": "https://wolt.com/en/cyp/nicosia/restaurant/you-coffee-latsia"
        },
        {
          "cafe": "Hogar All Day",
          "freddo": 2.2,
          "address": "Stavrou 79, Office 201, Strovolos",
          "lat": 35.13580531,
          "lng": 33.35791569,
          "url": "https://wolt.com/en/cyp/nicosia/restaurant/hogar-coffee"
        },
        {
          "cafe": "Vienna Bakeries Latsia",
          "freddo": 2.3,
          "address": "Giannou Kranidioti 84, Latsia",
          "lat": 35.10094674,
          "lng": 33.37934729,
          "url": "https://wolt.com/en/cyp/nicosia/restaurant/vienna-bakeries-latsia"
        },
        {
          "cafe": "Bubble Tale Ledras",
          "freddo": 2.3,
          "address": "Ledras 241",
          "lat": 35.17024988,
          "lng": 33.36123635,
          "url": "https://wolt.com/en/cyp/nicosia/restaurant/bubble-tale-ledras"
        },
        {
          "cafe": "Caffe Milano Agios Dometios",
          "freddo": 2.3,
          "address": "116Β Ayiou Pavlou, Agios Dometios ",
          "lat": 35.17762841,
          "lng": 33.3341322,
          "url": "https://wolt.com/en/cyp/nicosia/restaurant/caffe-milano-agios-dometios"
        },
        {
          "cafe": "Pasafreddo",
          "freddo": 2.3,
          "address": "Atho, Nicosia ",
          "lat": 35.16067685,
          "lng": 33.3589124,
          "url": "https://wolt.com/en/cyp/nicosia/restaurant/dna-cafe"
        },
        {
          "cafe": "Gusto Cafe",
          "freddo": 2.3,
          "address": "B18 2, Agios Dometios",
          "lat": 35.17120361,
          "lng": 33.34070015,
          "url": "https://wolt.com/en/cyp/nicosia/restaurant/gusto-caffe"
        },
        {
          "cafe": "The Other Way Espresso Bar",
          "freddo": 2.4,
          "address": "Arnaldas 11",
          "lat": 35.16726923,
          "lng": 33.36100102,
          "url": "https://wolt.com/en/cyp/nicosia/restaurant/coffee-way1"
        }
      ]
    },
    {
      "key": "limassol",
      "label": {
        "en": "Limassol",
        "el": "Λεμεσός",
        "ru": "Лимасол"
      },
      "cafes": [
        {
          "cafe": "The Coffice Hour",
          "freddo": 2,
          "address": "Vasileos Konstantinou 146",
          "lat": 34.69870748,
          "lng": 33.02136386,
          "url": "https://wolt.com/en/cyp/limassol/restaurant/the-coffice-hour"
        },
        {
          "cafe": "Love Coffee",
          "freddo": 2.2,
          "address": "Thespion 30, Agia Fyla",
          "lat": 34.70532436,
          "lng": 33.0251675,
          "url": "https://wolt.com/en/cyp/limassol/restaurant/love-coffee"
        },
        {
          "cafe": "Coffee Time Cafe",
          "freddo": 2.2,
          "address": "25 Archiepiskopou Makariou C",
          "lat": 34.67565987,
          "lng": 33.02055686,
          "url": "https://wolt.com/en/cyp/limassol/restaurant/coffee-time-cafe"
        },
        {
          "cafe": "Bubble Tale Makariou",
          "freddo": 2.3,
          "address": "Arch. Makarios III Avenue 198",
          "lat": 34.68752569,
          "lng": 33.04524387,
          "url": "https://wolt.com/en/cyp/limassol/restaurant/bubble-tale-makariou"
        },
        {
          "cafe": "1862 Coffeehouse",
          "freddo": 2.3,
          "address": "Grigori Auxentiou 29",
          "lat": 34.69914531,
          "lng": 33.04706624,
          "url": "https://wolt.com/en/cyp/limassol/restaurant/1862-coffeehouse-showroom"
        },
        {
          "cafe": "Goppion Cafe Omonoias",
          "freddo": 2.3,
          "address": "Omonoias 65",
          "lat": 34.66803603,
          "lng": 33.01353767,
          "url": "https://wolt.com/en/cyp/limassol/restaurant/goppion-caffe-omonoias"
        },
        {
          "cafe": "The Doctor Espresso",
          "freddo": 2.4,
          "address": "Odos pafou 191, kato polemidia ",
          "lat": 34.67575455,
          "lng": 33.0036602,
          "url": "https://wolt.com/en/cyp/limassol/restaurant/the-doctor-espresso"
        },
        {
          "cafe": "Cafeneio",
          "freddo": 2.4,
          "address": "Sofias Vempou 8",
          "lat": 34.70246773,
          "lng": 33.03281337,
          "url": "https://wolt.com/en/cyp/limassol/restaurant/cafe-neio"
        },
        {
          "cafe": "The Cake Room",
          "freddo": 2.5,
          "address": "76 Archiepiskopou Makariou III",
          "lat": 34.68078165,
          "lng": 33.02721898,
          "url": "https://wolt.com/en/cyp/limassol/restaurant/the-cake-room"
        },
        {
          "cafe": "First Coffee",
          "freddo": 2.5,
          "address": "P2M6+W2F, Avenita St",
          "lat": 34.73518783,
          "lng": 33.00970638,
          "url": "https://wolt.com/en/cyp/limassol/restaurant/first-coffee"
        },
        {
          "cafe": "Coffee Taste Polemidia",
          "freddo": 2.5,
          "address": "10th Street 22, Kato Polemidia ",
          "lat": 34.69106845,
          "lng": 32.99527179,
          "url": "https://wolt.com/en/cyp/limassol/restaurant/coffee-taste-polemidia"
        },
        {
          "cafe": "Cafe 4 You",
          "freddo": 2.5,
          "address": "Ανοικοδομήσεως, 25, MARINA COURT, SHOP 1, Αγιος Αθανάσιος",
          "lat": 34.70909182,
          "lng": 33.05442334,
          "url": "https://wolt.com/en/cyp/limassol/restaurant/cafe-4-you"
        }
      ]
    },
    {
      "key": "larnaca",
      "label": {
        "en": "Larnaca",
        "el": "Λάρνακα",
        "ru": "Ларнака"
      },
      "cafes": [
        {
          "cafe": "Posto All Day Cafe",
          "freddo": 1.8,
          "address": "Zenonos Kitieos 11",
          "lat": 34.948085,
          "lng": 33.62784092,
          "url": "https://wolt.com/en/cyp/larnaca/restaurant/posto-all-day-cafe2"
        },
        {
          "cafe": "Coffee AAP",
          "freddo": 2,
          "address": "Louki Akrita 5 ",
          "lat": 34.91802228,
          "lng": 33.6314075,
          "url": "https://wolt.com/en/cyp/larnaca/restaurant/coffee-aap"
        },
        {
          "cafe": "Coffeetainer",
          "freddo": 2.2,
          "address": "Georgiou Seferi 2, Arapidou",
          "lat": 34.94324865,
          "lng": 33.61788168,
          "url": "https://wolt.com/en/cyp/larnaca/restaurant/coffeetainer"
        },
        {
          "cafe": "My Coffee Cup",
          "freddo": 2.2,
          "address": "28is Oktovriou, Dromolaxia ",
          "lat": 34.89082028,
          "lng": 33.57803902,
          "url": "https://wolt.com/en/cyp/larnaca/restaurant/my-coffee-cup"
        },
        {
          "cafe": "40 Feet Coffee",
          "freddo": 2.3,
          "address": "Konstantinou Palaiologou 18, Drosia",
          "lat": 34.91878368,
          "lng": 33.61569899,
          "url": "https://wolt.com/en/cyp/larnaca/restaurant/40-feet-coffee"
        },
        {
          "cafe": "Coffee Berry Spyrou Kyprianou",
          "freddo": 2.4,
          "address": "Spyrou Kyprianou 80-90",
          "lat": 34.93027734,
          "lng": 33.62161196,
          "url": "https://wolt.com/en/cyp/larnaca/restaurant/coffee-berry-spyrou-kyprianou"
        },
        {
          "cafe": "Mingle Cafe",
          "freddo": 2.5,
          "address": "Ermou 153",
          "lat": 34.91331054,
          "lng": 33.63573049,
          "url": "https://wolt.com/en/cyp/larnaca/restaurant/mingle-cafe"
        },
        {
          "cafe": "Panther Eye Coffee & More",
          "freddo": 2.5,
          "address": "Agion Anargiron 38",
          "lat": 34.935231522173154,
          "lng": 33.62605981227483,
          "url": "https://wolt.com/en/cyp/larnaca/restaurant/panther-eye-coffee-more"
        },
        {
          "cafe": "StoArtos Coffee Bakery",
          "freddo": 2.5,
          "address": "Faneromenis 11",
          "lat": 34.91130139,
          "lng": 33.63520926,
          "url": "https://wolt.com/en/cyp/larnaca/restaurant/stoartos"
        },
        {
          "cafe": "Bakehouse By Florentia",
          "freddo": 2.5,
          "address": "Meropis 9",
          "lat": 34.93181109,
          "lng": 33.63560509,
          "url": "https://wolt.com/en/cyp/larnaca/restaurant/florentia-bakehouse"
        },
        {
          "cafe": "The Bean Yard Coffee House",
          "freddo": 2.5,
          "address": "Inomenon Polition Amerikis 17",
          "lat": 34.9223856,
          "lng": 33.6067372,
          "url": "https://wolt.com/en/cyp/larnaca/restaurant/the-bean-yard-coffee-house"
        },
        {
          "cafe": "Hot Shot Coffee Shop",
          "freddo": 2.5,
          "address": "Markou Drakou 32, Shop 7",
          "lat": 34.9192792,
          "lng": 33.6267433,
          "url": "https://wolt.com/en/cyp/larnaca/restaurant/hot-shot-coffee-shop"
        }
      ]
    },
    {
      "key": "paphos",
      "label": {
        "en": "Paphos",
        "el": "Πάφος",
        "ru": "Пафос"
      },
      "cafes": [
        {
          "cafe": "Ciel Cafe",
          "freddo": 2.4,
          "address": "Eleftherias 91, Chloraka ",
          "lat": 34.79332633,
          "lng": 32.4151784,
          "url": "https://wolt.com/en/cyp/paphos/restaurant/ciel-cafe"
        },
        {
          "cafe": "Frunch Piroski & Cafe",
          "freddo": 2.5,
          "address": "Archiepiskopou Makariou 3, 56, shop 3",
          "lat": 34.77733349,
          "lng": 32.42055381,
          "url": "https://wolt.com/en/cyp/paphos/restaurant/frunch-piroski-cafe"
        },
        {
          "cafe": "Papantoniou Bakeries Kato Paphos",
          "freddo": 2.5,
          "address": "Apostolou Pavlou Avenue 41",
          "lat": 34.76963573,
          "lng": 32.41739866,
          "url": "https://wolt.com/en/cyp/paphos/restaurant/papantoniou-bakeries-kato-paphos"
        },
        {
          "cafe": "Street Box Cafe",
          "freddo": 2.5,
          "address": "Archiepiskopou Makariou 3, Timi",
          "lat": 34.72802322,
          "lng": 32.51336883,
          "url": "https://wolt.com/en/cyp/paphos/restaurant/street-box-cafe"
        },
        {
          "cafe": "The Bean's Garage",
          "freddo": 2.5,
          "address": "Constantinou Kanari 61, Shop 1",
          "lat": 34.77907181,
          "lng": 32.41972204,
          "url": "https://wolt.com/en/cyp/paphos/restaurant/the-beans-garage"
        },
        {
          "cafe": "Diexodos Coffee & Snack Boutique",
          "freddo": 2.5,
          "address": "Rigenis 21, Yeroskipou",
          "lat": 34.76530396,
          "lng": 32.45307254,
          "url": "https://wolt.com/en/cyp/paphos/restaurant/diexodos-coffee-and-snack-boutique"
        },
        {
          "cafe": "Rikano Coffee Shop Alexandrou Papagou",
          "freddo": 2.5,
          "address": "Alexandrou Papagou 99",
          "lat": 34.78053774,
          "lng": 32.44218681,
          "url": "https://wolt.com/en/cyp/paphos/restaurant/rikano-coffeshop-mesogis"
        },
        {
          "cafe": "The 23 Cafe",
          "freddo": 2.5,
          "address": "30, Kinira",
          "lat": 34.77568484,
          "lng": 32.43126026,
          "url": "https://wolt.com/en/cyp/paphos/restaurant/the-23-cafe"
        },
        {
          "cafe": "Atlas Coffee Shop",
          "freddo": 2.5,
          "address": "Leoforos Mesogis 121 A",
          "lat": 34.81601656,
          "lng": 32.45153368,
          "url": "https://wolt.com/en/cyp/paphos/restaurant/atlas-coffee-shop"
        },
        {
          "cafe": "David's Coffee House",
          "freddo": 2.5,
          "address": "Leoforos Chrisoneras, Kissonerga",
          "lat": 34.8125367,
          "lng": 32.39690931,
          "url": "https://wolt.com/en/cyp/paphos/restaurant/davids-coffee-house"
        },
        {
          "cafe": "VK Cafe Paphos",
          "freddo": 2.5,
          "address": "58, Eleutheriou Venizelou ",
          "lat": 34.78120117,
          "lng": 32.43529434,
          "url": "https://wolt.com/en/cyp/paphos/restaurant/vk-cafe-paphos"
        },
        {
          "cafe": "Churrito ",
          "freddo": 2.5,
          "address": "Fellachoglou 21, Shop 7",
          "lat": 34.78034457,
          "lng": 32.42067097,
          "url": "https://wolt.com/en/cyp/paphos/restaurant/churrito"
        }
      ]
    },
    {
      "key": "famagusta",
      "label": {
        "en": "Ayia Napa & Paralimni",
        "el": "Αγία Νάπα & Παραλίμνι",
        "ru": "Айя-Напа и Паралимни"
      },
      "cafes": [
        {
          "cafe": "Casa Nostra Cafe",
          "freddo": 2.2,
          "address": "Griva Digeni 13",
          "lat": 35.03987885,
          "lng": 33.98093305,
          "url": "https://wolt.com/en/cyp/ayia-napa/restaurant/casa-nostra-cafe"
        },
        {
          "cafe": "Coffee 2 Go N’ More - Periptero Assias",
          "freddo": 2.2,
          "address": "Georgiou Gourounia 232 Paralimni 5281",
          "lat": 35.05603027,
          "lng": 33.97134399,
          "url": "https://wolt.com/en/cyp/ayia-napa/restaurant/coffee-2-go-n-more"
        },
        {
          "cafe": "The Bakery Co.",
          "freddo": 2.4,
          "address": "Arhcepiskopou Makariou III 14, Ayia Napa",
          "lat": 34.98738662,
          "lng": 34.0002786,
          "url": "https://wolt.com/en/cyp/ayia-napa/restaurant/bakery-co"
        },
        {
          "cafe": "One Way Coffee Shop",
          "freddo": 2.4,
          "address": "Plateia Hroon 1G, Swtira ",
          "lat": 35.02819195114908,
          "lng": 33.951581387222404,
          "url": "https://wolt.com/en/cyp/ayia-napa/restaurant/one-way-coffee-shop"
        },
        {
          "cafe": "SX Express Coffee",
          "freddo": 2.5,
          "address": "Nissi Avenue 46",
          "lat": 34.98847727,
          "lng": 33.9868882,
          "url": "https://wolt.com/en/cyp/ayia-napa/restaurant/sx-express-coffee"
        },
        {
          "cafe": "Shop n Save Coffee Spot Protaras",
          "freddo": 2.5,
          "address": "Poseidonos 15",
          "lat": 35.05272145,
          "lng": 34.01489598,
          "url": "https://wolt.com/en/cyp/ayia-napa/restaurant/shop-n-save-coffee-spot-protaras"
        },
        {
          "cafe": "Favorito Cafe",
          "freddo": 2.5,
          "address": "11 Archiepiskopou Makariou III Deryneia ",
          "lat": 35.06247554,
          "lng": 33.96006976,
          "url": "https://wolt.com/en/cyp/ayia-napa/restaurant/favorito-cafe"
        },
        {
          "cafe": "La Casa De Cafe",
          "freddo": 2.5,
          "address": "Varosion 16, Deryneia ",
          "lat": 35.04998016,
          "lng": 33.9585495,
          "url": "https://wolt.com/en/cyp/ayia-napa/restaurant/la-casa-de-cafe"
        },
        {
          "cafe": "Delta Cafe",
          "freddo": 2.5,
          "address": "Stadiou",
          "lat": 35.03230286,
          "lng": 33.98239136,
          "url": "https://wolt.com/en/cyp/ayia-napa/restaurant/delta-cafe"
        },
        {
          "cafe": "Grecos Bakery",
          "freddo": 2.5,
          "address": "Cavo Greco Avenue 556",
          "lat": 34.99599965,
          "lng": 34.06489775,
          "url": "https://wolt.com/en/cyp/ayia-napa/restaurant/grecos-bakery"
        },
        {
          "cafe": "Amarilino Coffee n' More ",
          "freddo": 2.6,
          "address": "leoforos griva digeni 131",
          "lat": 35.04824282,
          "lng": 33.97740442,
          "url": "https://wolt.com/en/cyp/ayia-napa/restaurant/amarilino-coffee-n-more"
        },
        {
          "cafe": "Safira Coffee",
          "freddo": 2.6,
          "address": "Korai 59, Paralimni",
          "lat": 35.05215829,
          "lng": 33.98161122,
          "url": "https://wolt.com/en/cyp/ayia-napa/restaurant/safira-coffee"
        }
      ]
    }
  ]
}
