{
  "updatedAt": "2026-07-14T18:51:53.323Z",
  "cities": [
    {
      "key": "nicosia",
      "label": {
        "en": "Nicosia",
        "el": "Λευκωσία",
        "ru": "Никосия"
      },
      "cafes": [
        {
          "cafe": "Deli. Lidas",
          "freddo": 1.95,
          "address": "Poseidonos 2, Pallouriotissa",
          "lat": 35.16507983,
          "lng": 33.38238679,
          "url": "https://wolt.com/en/cyp/nicosia/restaurant/deli-lidas"
        },
        {
          "cafe": "Bake On Wood",
          "freddo": 2,
          "address": "Archbishop Makarios III, 19a",
          "lat": 35.11667357,
          "lng": 33.37868972,
          "url": "https://wolt.com/en/cyp/nicosia/restaurant/bake-on-wood"
        },
        {
          "cafe": "Hogar All Day",
          "freddo": 2.2,
          "address": "Stavrou 79, Office 201, Strovolos",
          "lat": 35.13580531,
          "lng": 33.35791569,
          "url": "https://wolt.com/en/cyp/nicosia/restaurant/hogar-coffee"
        },
        {
          "cafe": "Vienna Bakeries Latsia",
          "freddo": 2.3,
          "address": "Giannou Kranidioti 84, Latsia",
          "lat": 35.10094674,
          "lng": 33.37934729,
          "url": "https://wolt.com/en/cyp/nicosia/restaurant/vienna-bakeries-latsia"
        },
        {
          "cafe": "Bubble Tale Ledras",
          "freddo": 2.3,
          "address": "Ledras 241",
          "lat": 35.17024988,
          "lng": 33.36123635,
          "url": "https://wolt.com/en/cyp/nicosia/restaurant/bubble-tale-ledras"
        },
        {
          "cafe": "Bakalicom",
          "freddo": 2.3,
          "address": "Archiepiskopou Makariou III 1 1065, Nicosia, Cyprus",
          "lat": 35.16884524,
          "lng": 33.35938454,
          "url": "https://wolt.com/en/cyp/nicosia/restaurant/bakalicom"
        },
        {
          "cafe": "Caffe Milano Agios Dometios",
          "freddo": 2.3,
          "address": "116Β Ayiou Pavlou, Agios Dometios ",
          "lat": 35.17762841,
          "lng": 33.3341322,
          "url": "https://wolt.com/en/cyp/nicosia/restaurant/caffe-milano-agios-dometios"
        },
        {
          "cafe": "Pasafreddo",
          "freddo": 2.3,
          "address": "Atho, Nicosia ",
          "lat": 35.16067685,
          "lng": 33.3589124,
          "url": "https://wolt.com/en/cyp/nicosia/restaurant/dna-cafe"
        },
        {
          "cafe": "The Farm Coffee Shop",
          "freddo": 2.4,
          "address": "Stasikratous 45A",
          "lat": 35.1651865,
          "lng": 33.36281021,
          "url": "https://wolt.com/en/cyp/nicosia/restaurant/the-farm-coffee-roasters"
        },
        {
          "cafe": "The Other Way Espresso Bar",
          "freddo": 2.4,
          "address": "Arnaldas 11",
          "lat": 35.16726923,
          "lng": 33.36100102,
          "url": "https://wolt.com/en/cyp/nicosia/restaurant/coffee-way1"
        },
        {
          "cafe": "Estrada 54",
          "freddo": 2.4,
          "address": "28th October 54b, Egkomi, Cyprus",
          "lat": 35.15926319,
          "lng": 33.31661945,
          "url": "https://wolt.com/en/cyp/nicosia/restaurant/estrada-54"
        },
        {
          "cafe": "Le Gout Tseriou",
          "freddo": 2.4,
          "address": "Tseriou 130, Strovolos ",
          "lat": 35.1285592,
          "lng": 33.3378671,
          "url": "https://wolt.com/en/cyp/nicosia/restaurant/le-gout-tseriou"
        }
      ]
    },
    {
      "key": "limassol",
      "label": {
        "en": "Limassol",
        "el": "Λεμεσός",
        "ru": "Лимасол"
      },
      "cafes": [
        {
          "cafe": "The Coffice Hour",
          "freddo": 2,
          "address": "Vasileos Konstantinou 146",
          "lat": 34.69870748,
          "lng": 33.02136386,
          "url": "https://wolt.com/en/cyp/limassol/restaurant/the-coffice-hour"
        },
        {
          "cafe": "Love Coffee",
          "freddo": 2.2,
          "address": "Thespion 30, Agia Fyla",
          "lat": 34.70532436,
          "lng": 33.0251675,
          "url": "https://wolt.com/en/cyp/limassol/restaurant/love-coffee"
        },
        {
          "cafe": "Coffee Time Cafe",
          "freddo": 2.2,
          "address": "25 Archiepiskopou Makariou C",
          "lat": 34.67565987,
          "lng": 33.02055686,
          "url": "https://wolt.com/en/cyp/limassol/restaurant/coffee-time-cafe"
        },
        {
          "cafe": "Vendi Papafilippou Ice Cream",
          "freddo": 2.3,
          "address": "Georgiou Griva Digeni 99, Mesa Geitonia",
          "lat": 34.69253269,
          "lng": 33.06322146,
          "url": "https://wolt.com/en/cyp/limassol/restaurant/vendi-papafilippou-ice-cream"
        },
        {
          "cafe": "Goppion Cafe Omonoias",
          "freddo": 2.3,
          "address": "Omonoias 65",
          "lat": 34.66803603,
          "lng": 33.01353767,
          "url": "https://wolt.com/en/cyp/limassol/restaurant/goppion-caffe-omonoias"
        },
        {
          "cafe": "1862 Coffeehouse",
          "freddo": 2.3,
          "address": "Grigori Auxentiou 29",
          "lat": 34.69914531,
          "lng": 33.04706624,
          "url": "https://wolt.com/en/cyp/limassol/restaurant/1862-coffeehouse-showroom"
        },
        {
          "cafe": "Cafeneio",
          "freddo": 2.4,
          "address": "Sofias Vempou 8",
          "lat": 34.70246773,
          "lng": 33.03281337,
          "url": "https://wolt.com/en/cyp/limassol/restaurant/cafe-neio"
        },
        {
          "cafe": "Snack Attack",
          "freddo": 2.4,
          "address": "Agiou Ioanni 9a",
          "lat": 34.67461859,
          "lng": 33.02029268,
          "url": "https://wolt.com/en/cyp/limassol/restaurant/snack-attack"
        },
        {
          "cafe": "The Doctor Espresso",
          "freddo": 2.4,
          "address": "Odos pafou 191, kato polemidia ",
          "lat": 34.67575455,
          "lng": 33.0036602,
          "url": "https://wolt.com/en/cyp/limassol/restaurant/the-doctor-espresso"
        },
        {
          "cafe": "Costadoro Coffee Linopetras",
          "freddo": 2.5,
          "address": "LEOFOROU GRIVA DIGENI 128",
          "lat": 34.69156239,
          "lng": 33.06826486,
          "url": "https://wolt.com/en/cyp/limassol/restaurant/ministop-linopetras"
        },
        {
          "cafe": "Caldi Coffee Zakaki",
          "freddo": 2.5,
          "address": "Franglinou Rousvelt 199",
          "lat": 34.66014387,
          "lng": 33.00816696,
          "url": "https://wolt.com/en/cyp/limassol/restaurant/caldi-zakaki"
        },
        {
          "cafe": "Magnum Roof Garden",
          "freddo": 2.5,
          "address": "Spyrou Kyprianou Ave 78",
          "lat": 34.69422602,
          "lng": 33.02803297,
          "url": "https://wolt.com/en/cyp/limassol/restaurant/magnum-roof-garden"
        }
      ]
    },
    {
      "key": "larnaca",
      "label": {
        "en": "Larnaca",
        "el": "Λάρνακα",
        "ru": "Ларнака"
      },
      "cafes": [
        {
          "cafe": "Posto All Day Cafe",
          "freddo": 1.8,
          "address": "Zenonos Kitieos 11",
          "lat": 34.948085,
          "lng": 33.62784092,
          "url": "https://wolt.com/en/cyp/larnaca/restaurant/posto-all-day-cafe2"
        },
        {
          "cafe": "Coffee AAP",
          "freddo": 2,
          "address": "Louki Akrita 5 ",
          "lat": 34.91802228,
          "lng": 33.6314075,
          "url": "https://wolt.com/en/cyp/larnaca/restaurant/coffee-aap"
        },
        {
          "cafe": "Coffeetainer",
          "freddo": 2.2,
          "address": "Georgiou Seferi 2, Arapidou",
          "lat": 34.94324865,
          "lng": 33.61788168,
          "url": "https://wolt.com/en/cyp/larnaca/restaurant/coffeetainer"
        },
        {
          "cafe": "My Coffee Cup",
          "freddo": 2.2,
          "address": "28is Oktovriou, Dromolaxia ",
          "lat": 34.89082028,
          "lng": 33.57803902,
          "url": "https://wolt.com/en/cyp/larnaca/restaurant/my-coffee-cup"
        },
        {
          "cafe": "40 Feet Coffee",
          "freddo": 2.3,
          "address": "Konstantinou Palaiologou 18, Drosia",
          "lat": 34.91878368,
          "lng": 33.61569899,
          "url": "https://wolt.com/en/cyp/larnaca/restaurant/40-feet-coffee"
        },
        {
          "cafe": "Coffee Berry Spyrou Kyprianou",
          "freddo": 2.4,
          "address": "Spyrou Kyprianou 80-90",
          "lat": 34.93027734,
          "lng": 33.62161196,
          "url": "https://wolt.com/en/cyp/larnaca/restaurant/coffee-berry-spyrou-kyprianou"
        },
        {
          "cafe": "Santai Lounge Larnaca",
          "freddo": 2.5,
          "address": "Stratigou Timagia 13",
          "lat": 34.928173,
          "lng": 33.617343,
          "url": "https://wolt.com/en/cyp/larnaca/restaurant/santai-lounge-larnaca"
        },
        {
          "cafe": "Cafe Vergnano 1882",
          "freddo": 2.5,
          "address": "Archiepiskopou Makariou 69 ",
          "lat": 34.92740495,
          "lng": 33.63667888,
          "url": "https://wolt.com/en/cyp/larnaca/restaurant/cafe-vergnano-1882"
        },
        {
          "cafe": "Hot Shot Coffee Shop",
          "freddo": 2.5,
          "address": "Markou Drakou 32, Shop 7",
          "lat": 34.9192792,
          "lng": 33.6267433,
          "url": "https://wolt.com/en/cyp/larnaca/restaurant/hot-shot-coffee-shop"
        },
        {
          "cafe": "Kafeneion 26 Coffee House",
          "freddo": 2.5,
          "address": "Ermou 26",
          "lat": 34.9166762,
          "lng": 33.6327874,
          "url": "https://wolt.com/en/cyp/larnaca/restaurant/kafeneion-26-coffee-house"
        },
        {
          "cafe": "The Bean Yard Coffee House Salina",
          "freddo": 2.5,
          "address": "Grigori Afxentiou 42",
          "lat": 34.915345793986475,
          "lng": 33.6246532878061,
          "url": "https://wolt.com/en/cyp/larnaca/restaurant/the-bean-yard-coffee-house-salina"
        },
        {
          "cafe": "Red Panda Specialty Coffee",
          "freddo": 2.5,
          "address": "Faneromenis 150",
          "lat": 34.91137288,
          "lng": 33.61730852,
          "url": "https://wolt.com/en/cyp/larnaca/restaurant/red-panda-coffe-co"
        }
      ]
    },
    {
      "key": "paphos",
      "label": {
        "en": "Paphos",
        "el": "Πάφος",
        "ru": "Пафос"
      },
      "cafes": [
        {
          "cafe": "Bubble Tale Paphos",
          "freddo": 2.3,
          "address": "5, Alkminis, Shop 30",
          "lat": 34.7562682,
          "lng": 32.41454461,
          "url": "https://wolt.com/en/cyp/paphos/restaurant/bubble-tale-paphos"
        },
        {
          "cafe": "Ciel Cafe",
          "freddo": 2.4,
          "address": "Eleftherias 91, Chloraka ",
          "lat": 34.79332633,
          "lng": 32.4151784,
          "url": "https://wolt.com/en/cyp/paphos/restaurant/ciel-cafe"
        },
        {
          "cafe": "Despina's Coffee",
          "freddo": 2.4,
          "address": "Papakosta Leonida 1, Chloraka",
          "lat": 34.79939933,
          "lng": 32.40809551,
          "url": "https://wolt.com/en/cyp/paphos/restaurant/daily-dose-esrpesso-cafe"
        },
        {
          "cafe": "Churrito ",
          "freddo": 2.5,
          "address": "Fellachoglou 21, Shop 7",
          "lat": 34.78034457,
          "lng": 32.42067097,
          "url": "https://wolt.com/en/cyp/paphos/restaurant/churrito"
        },
        {
          "cafe": "Frunch Piroski & Cafe",
          "freddo": 2.5,
          "address": "Archiepiskopou Makariou 3, 56, shop 3",
          "lat": 34.77733349,
          "lng": 32.42055381,
          "url": "https://wolt.com/en/cyp/paphos/restaurant/frunch-piroski-cafe"
        },
        {
          "cafe": "Rikano Coffee Shop Alexandrou Papagou",
          "freddo": 2.5,
          "address": "Alexandrou Papagou 99",
          "lat": 34.78053774,
          "lng": 32.44218681,
          "url": "https://wolt.com/en/cyp/paphos/restaurant/rikano-coffeshop-mesogis"
        },
        {
          "cafe": "The 23 Cafe",
          "freddo": 2.5,
          "address": "30, Kinira",
          "lat": 34.77568484,
          "lng": 32.43126026,
          "url": "https://wolt.com/en/cyp/paphos/restaurant/the-23-cafe"
        },
        {
          "cafe": "Grind & Bean",
          "freddo": 2.5,
          "address": "Leoforos Xristou Kkeli 90, Kissonerga",
          "lat": 34.8240795,
          "lng": 32.4015908,
          "url": "https://wolt.com/en/cyp/paphos/restaurant/grind-bean"
        },
        {
          "cafe": "Diexodos Coffee & Snack Boutique",
          "freddo": 2.5,
          "address": "Rigenis 21, Yeroskipou",
          "lat": 34.76530396,
          "lng": 32.45307254,
          "url": "https://wolt.com/en/cyp/paphos/restaurant/diexodos-coffee-and-snack-boutique"
        },
        {
          "cafe": "David's Coffee House",
          "freddo": 2.5,
          "address": "Leoforos Chrisoneras, Kissonerga",
          "lat": 34.8125367,
          "lng": 32.39690931,
          "url": "https://wolt.com/en/cyp/paphos/restaurant/davids-coffee-house"
        },
        {
          "cafe": "Coffeeholic",
          "freddo": 2.5,
          "address": "Michael Savva 40",
          "lat": 34.7708991,
          "lng": 32.43997062,
          "url": "https://wolt.com/en/cyp/paphos/restaurant/coffeeholic"
        },
        {
          "cafe": "Atlas Coffee Shop",
          "freddo": 2.5,
          "address": "Leoforos Mesogis 121 A",
          "lat": 34.81601656,
          "lng": 32.45153368,
          "url": "https://wolt.com/en/cyp/paphos/restaurant/atlas-coffee-shop"
        }
      ]
    },
    {
      "key": "famagusta",
      "label": {
        "en": "Ayia Napa & Paralimni",
        "el": "Αγία Νάπα & Παραλίμνι",
        "ru": "Айя-Напа и Паралимни"
      },
      "cafes": [
        {
          "cafe": "Coffee 2 Go N’ More - Periptero Assias",
          "freddo": 2.2,
          "address": "Georgiou Gourounia 232 Paralimni 5281",
          "lat": 35.05603027,
          "lng": 33.97134399,
          "url": "https://wolt.com/en/cyp/ayia-napa/restaurant/coffee-2-go-n-more"
        },
        {
          "cafe": "Second Cup Paralimni",
          "freddo": 2.4,
          "address": "1st Apriliou 170, Paralimni",
          "lat": 35.03273186,
          "lng": 33.97951705,
          "url": "https://wolt.com/en/cyp/ayia-napa/restaurant/second-cup-paralimni"
        },
        {
          "cafe": "The Bakery Co.",
          "freddo": 2.4,
          "address": "Arhcepiskopou Makariou III 14, Ayia Napa",
          "lat": 34.98738662,
          "lng": 34.0002786,
          "url": "https://wolt.com/en/cyp/ayia-napa/restaurant/bakery-co"
        },
        {
          "cafe": "Cups & Mugs",
          "freddo": 2.5,
          "address": "Dimokratias 33, Sotira",
          "lat": 35.02790742,
          "lng": 33.9484718,
          "url": "https://wolt.com/en/cyp/ayia-napa/restaurant/cups-mugs"
        },
        {
          "cafe": "SX Express Coffee",
          "freddo": 2.5,
          "address": "Nissi Avenue 46",
          "lat": 34.98847727,
          "lng": 33.9868882,
          "url": "https://wolt.com/en/cyp/ayia-napa/restaurant/sx-express-coffee"
        },
        {
          "cafe": "La Casa De Cafe",
          "freddo": 2.5,
          "address": "Varosion 16, Deryneia ",
          "lat": 35.04998016,
          "lng": 33.9585495,
          "url": "https://wolt.com/en/cyp/ayia-napa/restaurant/la-casa-de-cafe"
        },
        {
          "cafe": "Coffee Roasters by Robustos",
          "freddo": 2.5,
          "address": "Tasou Markou 15",
          "lat": 35.04008882,
          "lng": 33.97938156,
          "url": "https://wolt.com/en/cyp/ayia-napa/restaurant/coffee-roasters-by-robustos"
        },
        {
          "cafe": "Shop n Save Coffee Spot Protaras",
          "freddo": 2.5,
          "address": "Poseidonos 15",
          "lat": 35.05272145,
          "lng": 34.01489598,
          "url": "https://wolt.com/en/cyp/ayia-napa/restaurant/shop-n-save-coffee-spot-protaras"
        },
        {
          "cafe": "Grecos Bakery",
          "freddo": 2.5,
          "address": "Cavo Greco Avenue 556",
          "lat": 34.99599965,
          "lng": 34.06489775,
          "url": "https://wolt.com/en/cyp/ayia-napa/restaurant/grecos-bakery"
        },
        {
          "cafe": "Amarilino Coffee n' More ",
          "freddo": 2.6,
          "address": "leoforos griva digeni 131",
          "lat": 35.04824282,
          "lng": 33.97740442,
          "url": "https://wolt.com/en/cyp/ayia-napa/restaurant/amarilino-coffee-n-more"
        },
        {
          "cafe": "Dieci Kantina",
          "freddo": 2.6,
          "address": "Μακαρίου 111, Deryneia 5380",
          "lat": 35.05779046792232,
          "lng": 33.950497603092344,
          "url": "https://wolt.com/en/cyp/ayia-napa/restaurant/dieci-kantina-ammochostos"
        },
        {
          "cafe": "Safira Coffee",
          "freddo": 2.6,
          "address": "Korai 59, Paralimni",
          "lat": 35.05215829,
          "lng": 33.98161122,
          "url": "https://wolt.com/en/cyp/ayia-napa/restaurant/safira-coffee"
        }
      ]
    }
  ]
}
