{
  "updatedAt": "2026-07-09T19:03:35.229Z",
  "fuels": {
    "95": {
      "label": "Unleaded 95",
      "stations": [
        {
          "brand": "FILL N GO",
          "address": "Λεωφ. Λάρνακος 1 Τ.Κ 7648",
          "district": "Πυργά",
          "price": 1.389,
          "mapsUrl": "https://www.google.com/maps?q=34.92639,33.44032",
          "lat": 34.92639,
          "lng": 33.44032
        },
        {
          "brand": "SHELL",
          "address": "Δρόμος Καλού Χωριού Λάρνακας Τ.Κ 7643",
          "district": "Καλό Χωριό Λάρνακας",
          "price": 1.393,
          "mapsUrl": "https://www.google.com/maps?q=34.91073084,33.562161",
          "lat": 34.91073084,
          "lng": 33.562161
        },
        {
          "brand": "PETROLINA",
          "address": "Λεωφ. Αμμοχώστου Τ.Κ 7643",
          "district": "Καλό Χωριό Λάρνακας",
          "price": 1.393,
          "mapsUrl": "https://www.google.com/maps?q=34.92598333,33.54103333",
          "lat": 34.92598333,
          "lng": 33.54103333
        },
        {
          "brand": "PETROLINA",
          "address": "Γιάννου Κρανιδιώτη 247 Τ.Κ 2233",
          "district": "Λατσιά",
          "price": 1.399,
          "mapsUrl": "https://www.google.com/maps?q=35.078424,33.381658",
          "lat": 35.078424,
          "lng": 33.381658
        },
        {
          "brand": "SHELL",
          "address": "Tσερίου 36 Νήσου (Χαλεπιανές) Τ.Κ 2571",
          "district": "Πέρα Χωριό Νήσου",
          "price": 1.399,
          "mapsUrl": "https://www.google.com/maps?q=35.059124999999995,33.36853611111111",
          "lat": 35.059124999999995,
          "lng": 33.36853611111111
        },
        {
          "brand": "SHELL",
          "address": "Λεωφ. Αμμοχώστου 57 Τ.Κ 1016",
          "district": "Παλλουριώτισσα",
          "price": 1.399,
          "mapsUrl": "https://www.google.com/maps?q=35.170154,33.397329",
          "lat": 35.170154,
          "lng": 33.397329
        },
        {
          "brand": "ENI",
          "address": "Λεωφ. Λάρνακος 125 Τ.Κ 1048",
          "district": "Παλλουριώτισσα",
          "price": 1.399,
          "mapsUrl": "https://www.google.com/maps?q=35.1658,33.3822",
          "lat": 35.1658,
          "lng": 33.3822
        },
        {
          "brand": "FILL N GO",
          "address": "Λεωφ. Λάρνακος 184 Τ.Κ 2103",
          "district": "Αγλαντζιά",
          "price": 1.399,
          "mapsUrl": "https://www.google.com/maps?q=35.146412,33.418324",
          "lat": 35.146412,
          "lng": 33.418324
        },
        {
          "brand": "PETROLINA",
          "address": "Λεωφ. Ελλάδος 65 Τ.Κ 7101",
          "district": "Αραδίππου",
          "price": 1.399,
          "mapsUrl": "https://www.google.com/maps?q=34.92766666666667,33.58225",
          "lat": 34.92766666666667,
          "lng": 33.58225
        },
        {
          "brand": "FILL N GO",
          "address": "Σταδίου 9 (Χαλεπιανές) Τ.Κ 2571",
          "district": "Πέρα Χωριό Νήσου",
          "price": 1.399,
          "mapsUrl": "https://www.google.com/maps?q=35.0533941,33.3820345",
          "lat": 35.0533941,
          "lng": 33.3820345
        },
        {
          "brand": "PETROLINA",
          "address": "Λεωφ. Καντάρας 78 Τ.Κ 1027",
          "district": "Καϊμακλί",
          "price": 1.399,
          "mapsUrl": "https://www.google.com/maps?q=35.185485,33.39097",
          "lat": 35.185485,
          "lng": 33.39097
        },
        {
          "brand": "PETROLINA",
          "address": "Λεωφ. Αμμοχώστου 67 Τ.Κ 1048",
          "district": "Παλλουριώτισσα",
          "price": 1.399,
          "mapsUrl": "https://www.google.com/maps?q=35.168195,33.39786",
          "lat": 35.168195,
          "lng": 33.39786
        },
        {
          "brand": "ESSO",
          "address": "Λεωφ. Τζων Κέννετυ 78 Τ.Κ 1046",
          "district": "Παλλουριώτισσα",
          "price": 1.399,
          "mapsUrl": "https://www.google.com/maps?q=35.172382618025,33.3880451055572",
          "lat": 35.172382618025,
          "lng": 33.3880451055572
        },
        {
          "brand": "PETROLINA",
          "address": "Λεωφ. Λάρνακος 5 Τ.Κ 1035",
          "district": "Λευκωσία",
          "price": 1.399,
          "mapsUrl": "https://www.google.com/maps?q=35.1727,33.3726",
          "lat": 35.1727,
          "lng": 33.3726
        },
        {
          "brand": "SHELL",
          "address": "Λεωφ. Ελλάδος 76 Τ.Κ 7101",
          "district": "Αραδίππου",
          "price": 1.399,
          "mapsUrl": "https://www.google.com/maps?q=34.927460394756885,33.58150402848419",
          "lat": 34.927460394756885,
          "lng": 33.58150402848419
        },
        {
          "brand": "EKO",
          "address": "28ης Οκτωβρίου 12, Κόρνος Τ.Κ 7640",
          "district": "Κόρνος",
          "price": 1.415,
          "mapsUrl": "https://www.google.com/maps?q=34.927328,33.413823",
          "lat": 34.927328,
          "lng": 33.413823
        },
        {
          "brand": "SHELL",
          "address": "Αρχ. Μακαρίου Γ&#39; 126 Τ.Κ 2827",
          "district": "Γαλάτα",
          "price": 1.419,
          "mapsUrl": "https://www.google.com/maps?q=34.99814166666667,32.898002777777776",
          "lat": 34.99814166666667,
          "lng": 32.898002777777776
        },
        {
          "brand": "EKO",
          "address": "Λεωφ. Σαριγιάννη Τ.Κ 2831",
          "district": "Ευρύχου",
          "price": 1.42,
          "mapsUrl": "https://www.google.com/maps?q=35.070157,32.930054",
          "lat": 35.070157,
          "lng": 32.930054
        },
        {
          "brand": "SHELL",
          "address": "Αρχ. Μακαρίου Γ&#39; 11 Τ.Κ 2800",
          "district": "Κακοπετριά",
          "price": 1.42,
          "mapsUrl": "https://www.google.com/maps?q=34.992275,32.90260277777778",
          "lat": 34.992275,
          "lng": 32.90260277777778
        },
        {
          "brand": "PETROLINA",
          "address": "Αρχ. Μακαρίου Γ΄ 17 Τ.Κ 2800",
          "district": "Κακοπετριά",
          "price": 1.42,
          "mapsUrl": "https://www.google.com/maps?q=34.991233,32.902827",
          "lat": 34.991233,
          "lng": 32.902827
        },
        {
          "brand": "STAROIL",
          "address": "Λεώφ. Μητροπολίτη Χρύσανθου Σαριγιάννη 110 Τ.Κ 2831",
          "district": "Ευρύχου",
          "price": 1.42,
          "mapsUrl": "https://www.google.com/maps?q=35.05938888888888,32.91291666666667",
          "lat": 35.05938888888888,
          "lng": 32.91291666666667
        },
        {
          "brand": "PETROLINA",
          "address": "Λεωφ. Λεμεσού, Νήσου Τ.Κ 2571",
          "district": "Πέρα Χωριό Νήσου",
          "price": 1.428,
          "mapsUrl": "https://www.google.com/maps?q=35.0424,33.387107",
          "lat": 35.0424,
          "lng": 33.387107
        },
        {
          "brand": "EKO",
          "address": "Λεωφ. Λάρνακος 103 Τ.Κ 2103",
          "district": "Αγλαντζιά",
          "price": 1.428,
          "mapsUrl": "https://www.google.com/maps?q=35.155545,33.398449",
          "lat": 35.155545,
          "lng": 33.398449
        },
        {
          "brand": "EKO",
          "address": "Λεωφόρος Λεμεσού 341, Πέρα Χωριό (Βιομηχανική Περιοχή Νήσου) Τ.Κ 2571",
          "district": "Πέρα Χωριό Νήσου",
          "price": 1.428,
          "mapsUrl": "https://www.google.com/maps?q=35.052276,33.387661",
          "lat": 35.052276,
          "lng": 33.387661
        },
        {
          "brand": "EKO",
          "address": "Λεωφ. Διγενή Ακρίτα 7-9 Τ.Κ 1055",
          "district": "Λευκωσία",
          "price": 1.428,
          "mapsUrl": "https://www.google.com/maps?q=35.170191,33.374402",
          "lat": 35.170191,
          "lng": 33.374402
        },
        {
          "brand": "EKO",
          "address": "Λεωφ. Αγλαντζιάς 35 Τ.Κ 2108",
          "district": "Αγλαντζιά",
          "price": 1.428,
          "mapsUrl": "https://www.google.com/maps?q=35.156854,33.389026",
          "lat": 35.156854,
          "lng": 33.389026
        },
        {
          "brand": "EKO",
          "address": "Λεωφ. Λευκωσίας 108 Τ.Κ 2540",
          "district": "Δάλι",
          "price": 1.428,
          "mapsUrl": "https://www.google.com/maps?q=35.0342474332179,33.4088325048936",
          "lat": 35.0342474332179,
          "lng": 33.4088325048936
        },
        {
          "brand": "EKO",
          "address": "Λεωφ. Γερίου Τ.Κ 2200",
          "district": "Γέρι",
          "price": 1.428,
          "mapsUrl": "https://www.google.com/maps?q=35.1061438772506,33.3969139903519",
          "lat": 35.1061438772506,
          "lng": 33.3969139903519
        },
        {
          "brand": "SHELL",
          "address": "Δρόμος Αραδίππου - Αβδελλερού Τ.Κ",
          "district": "Αβδελλερό",
          "price": 1.429,
          "mapsUrl": "https://www.google.com/maps?q=34.975216,33.581264",
          "lat": 34.975216,
          "lng": 33.581264
        },
        {
          "brand": "EKO",
          "address": "Λεωφ. Αμμοχώστου Τ.Κ 7643",
          "district": "Καλό Χωριό Λάρνακας",
          "price": 1.434,
          "mapsUrl": "https://www.google.com/maps?q=34.927671,33.536158",
          "lat": 34.927671,
          "lng": 33.536158
        },
        {
          "brand": "EKO",
          "address": "Ελευθερίας 27 Τ.Κ 7102",
          "district": "Αραδίππου",
          "price": 1.434,
          "mapsUrl": "https://www.google.com/maps?q=34.935446,33.59272",
          "lat": 34.935446,
          "lng": 33.59272
        },
        {
          "brand": "ESSO",
          "address": "Γιάννου Κρανιδιώτη 112 Τ.Κ 2235",
          "district": "Λατσιά",
          "price": 1.437,
          "mapsUrl": "https://www.google.com/maps?q=35.0976900488074,33.3792905141556",
          "lat": 35.0976900488074,
          "lng": 33.3792905141556
        },
        {
          "brand": "EKO",
          "address": "Κυριάκου Μάτση 100 Τ.Κ 7102",
          "district": "Αραδίππου",
          "price": 1.438,
          "mapsUrl": "https://www.google.com/maps?q=34.939014,33.601698",
          "lat": 34.939014,
          "lng": 33.601698
        },
        {
          "brand": "PETROLINA",
          "address": "Λεωφ. Τσερίου 20, Νήσου (Χαλεπιανές) Τ.Κ 2571",
          "district": "Πέρα Χωριό Νήσου",
          "price": 1.439,
          "mapsUrl": "https://www.google.com/maps?q=35.055571,33.374225",
          "lat": 35.055571,
          "lng": 33.374225
        },
        {
          "brand": "SHELL",
          "address": "Λεωφ. Αρχ. Μακαρίου Γ΄ 57 Τ.Κ 6017",
          "district": "Λάρνακα",
          "price": 1.445,
          "mapsUrl": "https://www.google.com/maps?q=34.925152777777775,33.6367",
          "lat": 34.925152777777775,
          "lng": 33.6367
        },
        {
          "brand": "EKO",
          "address": "Λεωφ. Αρχ. Μακαρίου Γ΄ 35 Τ.Κ 6017",
          "district": "Λάρνακα",
          "price": 1.445,
          "mapsUrl": "https://www.google.com/maps?q=34.922123,33.636282",
          "lat": 34.922123,
          "lng": 33.636282
        },
        {
          "brand": "ESSO",
          "address": "Λεωφ. Διγενή Ακρίτα 43, Άγιος Αντώνιος Τ.Κ 1070",
          "district": "Λευκωσία",
          "price": 1.447,
          "mapsUrl": "https://www.google.com/maps?q=35.1668579182817,33.3703520423279",
          "lat": 35.1668579182817,
          "lng": 33.3703520423279
        },
        {
          "brand": "PETROLINA",
          "address": "Λεωφ. Γιώργου Χριστοδουλίδη (Νέο ΓΣΖ) Τ.Κ 6043",
          "district": "Λάρνακα",
          "price": 1.449,
          "mapsUrl": "https://www.google.com/maps?q=34.92536667,33.60203333",
          "lat": 34.92536667,
          "lng": 33.60203333
        },
        {
          "brand": "PETROLINA",
          "address": "Λεωφ. Σπ. Κυπριανού 22 Τ.Κ 2237",
          "district": "Λατσιά",
          "price": 1.449,
          "mapsUrl": "https://www.google.com/maps?q=35.1056,33.3644",
          "lat": 35.1056,
          "lng": 33.3644
        },
        {
          "brand": "PETROLINA",
          "address": "Γρηγόρη Αυξεντίου 76, Κοκκινοτριμιθιά Τ.Κ 2660",
          "district": "Κοκκινοτριμιθιά",
          "price": 1.455,
          "mapsUrl": "https://www.google.com/maps?q=35.148666,33.212235",
          "lat": 35.148666,
          "lng": 33.212235
        },
        {
          "brand": "ESSO",
          "address": "Λεωφ. Νίκης 37 Τ.Κ 1087",
          "district": "Ακρόπολη",
          "price": 1.455,
          "mapsUrl": "https://www.google.com/maps?q=35.1565679511699,33.3580602362457",
          "lat": 35.1565679511699,
          "lng": 33.3580602362457
        },
        {
          "brand": "ESSO",
          "address": "Στροβόλου 19 Τ.Κ 2480",
          "district": "Τσέρι",
          "price": 1.455,
          "mapsUrl": "https://www.google.com/maps?q=35.0787361111111,33.3254490740741",
          "lat": 35.0787361111111,
          "lng": 33.3254490740741
        },
        {
          "brand": "ESSO",
          "address": "Λεωφ. Στροβόλου 278 Τ.Κ 2048",
          "district": "Στρόβολος",
          "price": 1.455,
          "mapsUrl": "https://www.google.com/maps?q=35.1287232428282,33.324758841803",
          "lat": 35.1287232428282,
          "lng": 33.324758841803
        },
        {
          "brand": "SHELL",
          "address": "Λεωφ. Τσερίου 228 Τ.Κ 2044",
          "district": "Στρόβολος",
          "price": 1.455,
          "mapsUrl": "https://www.google.com/maps?q=35.1183,33.33324166666667",
          "lat": 35.1183,
          "lng": 33.33324166666667
        },
        {
          "brand": "SHELL",
          "address": "Λεωφ. Αθαλάσσας 33 Τ.Κ 2012",
          "district": "Στρόβολος",
          "price": 1.455,
          "mapsUrl": "https://www.google.com/maps?q=35.14863888888889,33.35194444444445",
          "lat": 35.14863888888889,
          "lng": 33.35194444444445
        },
        {
          "brand": "SHELL",
          "address": "Λεωφ. Αρχ. Μακαρίου Γ΄ 276 Τ.Κ 2311",
          "district": "Λακατάμεια",
          "price": 1.455,
          "mapsUrl": "https://www.google.com/maps?q=35.103889,33.302389",
          "lat": 35.103889,
          "lng": 33.302389
        },
        {
          "brand": "SHELL",
          "address": "Λεωφ. Αρχ. Μακαρίου Γ΄44, Κλήρου Τ.Κ 2600",
          "district": "Κλήρου",
          "price": 1.455,
          "mapsUrl": "https://www.google.com/maps?q=35.02599444444444,33.17898333333333",
          "lat": 35.02599444444444,
          "lng": 33.17898333333333
        },
        {
          "brand": "SHELL",
          "address": "Λεωφ. Αρτέμιδος 67 Τ.Κ 6027",
          "district": "Λάρνακα",
          "price": 1.455,
          "mapsUrl": "https://www.google.com/maps?q=34.903797222222224,33.630475",
          "lat": 34.903797222222224,
          "lng": 33.630475
        },
        {
          "brand": "SHELL",
          "address": "Λεωφ. Αρχ. Μακαρίου Γ΄ 49 Τ.Κ 1065",
          "district": "Λευκωσία",
          "price": 1.455,
          "mapsUrl": "https://www.google.com/maps?q=35.164144444444446,33.364491666666666",
          "lat": 35.164144444444446,
          "lng": 33.364491666666666
        },
        {
          "brand": "ESSO",
          "address": "Μακεδονιτίσσης 105 Τ.Κ 2057",
          "district": "Στρόβολος",
          "price": 1.455,
          "mapsUrl": "https://www.google.com/maps?q=35.1464221046094,33.3278149601883",
          "lat": 35.1464221046094,
          "lng": 33.3278149601883
        },
        {
          "brand": "ESSO",
          "address": "Λεωφ. Γρηγόρη Αυξεντίου 29, Πάνω Δευτερά Τ.Κ 2460",
          "district": "Δευτερά",
          "price": 1.455,
          "mapsUrl": "https://www.google.com/maps?q=35.081014,33.273498",
          "lat": 35.081014,
          "lng": 33.273498
        },
        {
          "brand": "EKO",
          "address": "Αρχ. Μακαρίου Γ΄ 18 (Παλαιός Δρόμος Λάρνακας-Λεμεσού) Τ.Κ 7571",
          "district": "Αγγλισίδες",
          "price": 1.455,
          "mapsUrl": "https://www.google.com/maps?q=34.852791,33.455066",
          "lat": 34.852791,
          "lng": 33.455066
        },
        {
          "brand": "PETROLINA",
          "address": "Λεωφ. Νίκης 1 Τ.Κ 1086",
          "district": "Λευκωσία",
          "price": 1.455,
          "mapsUrl": "https://www.google.com/maps?q=35.162387,33.35887",
          "lat": 35.162387,
          "lng": 33.35887
        },
        {
          "brand": "EKO",
          "address": "Λεωφόρος Στροβόλου 98 Τ.Κ 2325",
          "district": "Λακατάμεια",
          "price": 1.455,
          "mapsUrl": "https://www.google.com/maps?q=35.106167,33.330644",
          "lat": 35.106167,
          "lng": 33.330644
        },
        {
          "brand": "EKO",
          "address": "Λεωφ. Αρτέμιδος 29 Τ.Κ 6025",
          "district": "Λάρνακα",
          "price": 1.455,
          "mapsUrl": "https://www.google.com/maps?q=34.909094,33.629607",
          "lat": 34.909094,
          "lng": 33.629607
        },
        {
          "brand": "EKO",
          "address": "Λεωφ. Αρχ. Μακαρίου Γ΄ 61, Κοκκινοτριμιθιά Τ.Κ 2660",
          "district": "Κοκκινοτριμιθιά",
          "price": 1.455,
          "mapsUrl": "https://www.google.com/maps?q=35.146893,33.187866",
          "lat": 35.146893,
          "lng": 33.187866
        },
        {
          "brand": "EKO",
          "address": "Λεωφ. Δημοσθένη Σεβέρη 49 Τ.Κ 1080",
          "district": "Λευκωσία",
          "price": 1.455,
          "mapsUrl": "https://www.google.com/maps?q=35.15764,33.352016",
          "lat": 35.15764,
          "lng": 33.352016
        },
        {
          "brand": "EKO",
          "address": "Γ.Γρίβα Διγενή 12 Τ.Κ 2614",
          "district": "Αρεδιού",
          "price": 1.455,
          "mapsUrl": "https://www.google.com/maps?q=35.058393,33.206986",
          "lat": 35.058393,
          "lng": 33.206986
        },
        {
          "brand": "EKO",
          "address": "Μελίνας Μερκούρη 22 Τ.Κ 2311",
          "district": "Λακατάμεια",
          "price": 1.455,
          "mapsUrl": "https://www.google.com/maps?q=35.110876,33.309251",
          "lat": 35.110876,
          "lng": 33.309251
        },
        {
          "brand": "STAROIL",
          "address": "Πεύκου 71 Τ.Κ 2326",
          "district": "Λακατάμεια",
          "price": 1.455,
          "mapsUrl": "https://www.google.com/maps?q=35.09875,33.31522222222222",
          "lat": 35.09875,
          "lng": 33.31522222222222
        },
        {
          "brand": "STAROIL",
          "address": "Μεγάλου Αλεξάνδρου 46, Παλιομέτοχο Τ.Κ 2682",
          "district": "Παλιομέτοχο",
          "price": 1.455,
          "mapsUrl": "https://www.google.com/maps?q=35.137166666666666,33.21402777777778",
          "lat": 35.137166666666666,
          "lng": 33.21402777777778
        },
        {
          "brand": "STAROIL",
          "address": "Λεωφ. Αρχ. Μακαρίου Γ΄ 54 Τ.Κ 2324",
          "district": "Λακατάμεια",
          "price": 1.455,
          "mapsUrl": "https://www.google.com/maps?q=35.11961111111111,33.315999999999995",
          "lat": 35.11961111111111,
          "lng": 33.315999999999995
        },
        {
          "brand": "STAROIL",
          "address": "Ακανθούς 4, Πάνω Δευτερά Τ.Κ 2460",
          "district": "Δευτερά",
          "price": 1.455,
          "mapsUrl": "https://www.google.com/maps?q=35.090188221784366,33.26715483191825",
          "lat": 35.090188221784366,
          "lng": 33.26715483191825
        },
        {
          "brand": "STAROIL",
          "address": "Λεωφ. Αγίου Γεωργίου 107 Τ.Κ 2304",
          "district": "Λακατάμεια",
          "price": 1.455,
          "mapsUrl": "https://www.google.com/maps?q=35.11461111111111,33.28791666666667",
          "lat": 35.11461111111111,
          "lng": 33.28791666666667
        },
        {
          "brand": "STAROIL",
          "address": "Γρηγόρη Αυξεντίου 29, Πέρα Ορεινής Τ.Κ 2650",
          "district": "Πέρα Ορεινής",
          "price": 1.455,
          "mapsUrl": "https://www.google.com/maps?q=35.04547222222222,33.25463888888889",
          "lat": 35.04547222222222,
          "lng": 33.25463888888889
        },
        {
          "brand": "STAROIL",
          "address": "Κώστα Μισιαούλη 168 Τ.Κ 2480",
          "district": "Τσέρι",
          "price": 1.455,
          "mapsUrl": "https://www.google.com/maps?q=35.080333333333336,33.305138888888884",
          "lat": 35.080333333333336,
          "lng": 33.305138888888884
        },
        {
          "brand": "ESSO",
          "address": "Λεωφ. Γ.Γρίβα Διγενή 31-35 Τ.Κ 1082",
          "district": "Λευκωσία",
          "price": 1.455,
          "mapsUrl": "https://www.google.com/maps?q=35.1628065376475,33.3572777748687",
          "lat": 35.1628065376475,
          "lng": 33.3572777748687
        },
        {
          "brand": "EKO",
          "address": "Λεωφ. Πρωταρά 161 Τ.Κ 5289",
          "district": "Παραλίμνι",
          "price": 1.455,
          "mapsUrl": "https://www.google.com/maps?q=35.043444,33.994804",
          "lat": 35.043444,
          "lng": 33.994804
        },
        {
          "brand": "EKO",
          "address": "Λεωφ. Πρωταρά - Κάβο Γκρέκο 280 Τ.Κ 5310",
          "district": "Πρωταράς",
          "price": 1.455,
          "mapsUrl": "https://www.google.com/maps?q=35.025105,34.035299",
          "lat": 35.025105,
          "lng": 34.035299
        },
        {
          "brand": "PETROLINA",
          "address": "Λεωφ. Κυριάκου Μάτση 28, Αγ.Ομολογητές Τ.Κ 1082",
          "district": "Λευκωσία",
          "price": 1.455,
          "mapsUrl": "https://www.google.com/maps?q=35.1591,33.35478333",
          "lat": 35.1591,
          "lng": 33.35478333
        },
        {
          "brand": "ESSO",
          "address": "Λεωφ. Στροβόλου 37 Τ.Κ 2018",
          "district": "Στρόβολος",
          "price": 1.455,
          "mapsUrl": "https://www.google.com/maps?q=35.1487856870168,33.346567328836",
          "lat": 35.1487856870168,
          "lng": 33.346567328836
        },
        {
          "brand": "PETROLINA",
          "address": "Λεωφ. Γ.Γρίβα Διγενή 17 Τ.Κ 1082",
          "district": "Λευκωσία",
          "price": 1.455,
          "mapsUrl": "https://www.google.com/maps?q=35.162832,33.35741",
          "lat": 35.162832,
          "lng": 33.35741
        },
        {
          "brand": "EKO",
          "address": "Λεωφ. Προδρόμου 111 Τ.Κ 2063",
          "district": "Στρόβολος",
          "price": 1.455,
          "mapsUrl": "https://www.google.com/maps?q=35.162777,33.347181",
          "lat": 35.162777,
          "lng": 33.347181
        },
        {
          "brand": "EKO",
          "address": "Λεωφ. Αρχ. Μακαρίου Γ΄1, Κάτω Δευτερά Τ.Κ 2450",
          "district": "Δευτερά",
          "price": 1.455,
          "mapsUrl": "https://www.google.com/maps?q=35.088858,33.285772",
          "lat": 35.088858,
          "lng": 33.285772
        },
        {
          "brand": "EKO",
          "address": "Λεωφ. Νίκης 25 Τ.Κ 1086",
          "district": "Ακρόπολη",
          "price": 1.455,
          "mapsUrl": "https://www.google.com/maps?q=35.1579,33.358068",
          "lat": 35.1579,
          "lng": 33.358068
        },
        {
          "brand": "ESSO",
          "address": "Θεόκριτου 67 Τ.Κ 7600",
          "district": "Αθιένου",
          "price": 1.457,
          "mapsUrl": "https://www.google.com/maps?q=35.0552526086954,33.5329100466271",
          "lat": 35.0552526086954,
          "lng": 33.5329100466271
        },
        {
          "brand": "EKO",
          "address": "Δεκέλεια Τ.Κ",
          "district": "Δεκέλεια",
          "price": 1.457,
          "mapsUrl": "https://www.google.com/maps?q=34.98291,33.71689",
          "lat": 34.98291,
          "lng": 33.71689
        },
        {
          "brand": "EKO",
          "address": "Λεωφ. Γ.Γρίβα Διγενή 7 Τ.Κ 6010",
          "district": "Λάρνακα",
          "price": 1.457,
          "mapsUrl": "https://www.google.com/maps?q=34.916785,33.623624",
          "lat": 34.916785,
          "lng": 33.623624
        },
        {
          "brand": "ESSO",
          "address": "Λεωφ.Γ.Γρίβα Διγενή 43 Τ.Κ 6045",
          "district": "Λάρνακα",
          "price": 1.457,
          "mapsUrl": "https://www.google.com/maps?q=34.9187491493678,33.6186334558197",
          "lat": 34.9187491493678,
          "lng": 33.6186334558197
        },
        {
          "brand": "EKO",
          "address": "Θεοκρίτου 57 Τ.Κ 7600",
          "district": "Αθιένου",
          "price": 1.457,
          "mapsUrl": "https://www.google.com/maps?q=35.058083,33.535842",
          "lat": 35.058083,
          "lng": 33.535842
        },
        {
          "brand": "ESSO",
          "address": "Γρηγόρη Αυξεντίου, Ακάκι Τ.Κ 2720",
          "district": "Ακάκι",
          "price": 1.458,
          "mapsUrl": "https://www.google.com/maps?q=35.1370534076704,33.1417384202377",
          "lat": 35.1370534076704,
          "lng": 33.1417384202377
        },
        {
          "brand": "SHELL",
          "address": "Λεωφ. Λεμεσού 5 Τ.Κ 2563",
          "district": "Αλάμπρα",
          "price": 1.459,
          "mapsUrl": "https://www.google.com/maps?q=35.00055,33.397957",
          "lat": 35.00055,
          "lng": 33.397957
        },
        {
          "brand": "EKO",
          "address": "Κωνσταντινουπόλεως 85 Τ.Κ 7041",
          "district": "Δρόμος Καλαβασού - Ζυγίου",
          "price": 1.459,
          "mapsUrl": "https://www.google.com/maps?q=34.742285,33.326538",
          "lat": 34.742285,
          "lng": 33.326538
        },
        {
          "brand": "EKO",
          "address": "Λεωφ. Γρηγόρη Αυξεντίου 67, Αγία Βαρβάρα Τ.Κ 2560",
          "district": "Αγία Βαρβάρα",
          "price": 1.459,
          "mapsUrl": "https://www.google.com/maps?q=35.002166,33.380229",
          "lat": 35.002166,
          "lng": 33.380229
        },
        {
          "brand": "STAROIL",
          "address": "Λεωφ. Δρομολαξιάς 61 Τ.Κ 7550",
          "district": "Κίτι",
          "price": 1.459,
          "mapsUrl": "https://www.google.com/maps?q=34.861666666666665,33.57580555555556",
          "lat": 34.861666666666665,
          "lng": 33.57580555555556
        },
        {
          "brand": "EKO",
          "address": "1ης Απριλίου 138 Τ.Κ 5280",
          "district": "Παραλίμνι",
          "price": 1.459,
          "mapsUrl": "https://www.google.com/maps?q=35.035846,33.977612",
          "lat": 35.035846,
          "lng": 33.977612
        },
        {
          "brand": "PETROLINA",
          "address": "Λεωφ. Αρχ. Μακαρίου Γ΄2, Πέρα Χωριό Τ.Κ 2572",
          "district": "Πέρα Χωριό Νήσου",
          "price": 1.46,
          "mapsUrl": "https://www.google.com/maps?q=35.014335,33.394406",
          "lat": 35.014335,
          "lng": 33.394406
        },
        {
          "brand": "EKO",
          "address": "Λεωφ. Λεμεσού 21, Πέρα Χωριό Τ.Κ 2572",
          "district": "Πέρα Χωριό Νήσου",
          "price": 1.46,
          "mapsUrl": "https://www.google.com/maps?q=35.008912,33.39358",
          "lat": 35.008912,
          "lng": 33.39358
        },
        {
          "brand": "EKO",
          "address": "Λεωφ. Στροβόλου 223 Τ.Κ 2048",
          "district": "Στρόβολος",
          "price": 1.46,
          "mapsUrl": "https://www.google.com/maps?q=35.13313,33.329338",
          "lat": 35.13313,
          "lng": 33.329338
        },
        {
          "brand": "EKO",
          "address": "Αρχ. Μακαρίου Γ΄ 42, Πέρα Χωριό Τ.Κ 2572",
          "district": "Πέρα Χωριό Νήσου",
          "price": 1.46,
          "mapsUrl": "https://www.google.com/maps?q=35.015708,33.401891",
          "lat": 35.015708,
          "lng": 33.401891
        },
        {
          "brand": "PETROLINA",
          "address": "Λεωφ. Λουκή Ακρίτα 15 Τ.Κ 1100",
          "district": "Λευκωσία",
          "price": 1.465,
          "mapsUrl": "https://www.google.com/maps?q=35.17211667,33.34798333",
          "lat": 35.17211667,
          "lng": 33.34798333
        },
        {
          "brand": "ESSO",
          "address": "Τζελάλ Μπαγιάρ 4 Τ.Κ 3042",
          "district": "Λεμεσός",
          "price": 1.465,
          "mapsUrl": "https://www.google.com/maps?q=34.6720404678677,33.0372434981475",
          "lat": 34.6720404678677,
          "lng": 33.0372434981475
        },
        {
          "brand": "SHELL",
          "address": "28ης Οκτωβρίου 305 Τ.Κ 3105",
          "district": "Λεμεσός",
          "price": 1.465,
          "mapsUrl": "https://www.google.com/maps?q=34.68142222222222,33.05461388888889",
          "lat": 34.68142222222222,
          "lng": 33.05461388888889
        },
        {
          "brand": "SHELL",
          "address": "Φρ. Ρούσβελτ 92 Τ.Κ 3011",
          "district": "Λεμεσός",
          "price": 1.465,
          "mapsUrl": "https://www.google.com/maps?q=34.6665,33.023777777777774",
          "lat": 34.6665,
          "lng": 33.023777777777774
        },
        {
          "brand": "SHELL",
          "address": "Πάφου 37 Τ.Κ 3052",
          "district": "Λεμεσός",
          "price": 1.465,
          "mapsUrl": "https://www.google.com/maps?q=34.674994444444444,33.01171111111111",
          "lat": 34.674994444444444,
          "lng": 33.01171111111111
        },
        {
          "brand": "SHELL",
          "address": "Λεωφ. Αμμοχώστου 58 Τ.Κ 5380",
          "district": "Δερύνεια",
          "price": 1.465,
          "mapsUrl": "https://www.google.com/maps?q=35.06801388888889,33.96103055555556",
          "lat": 35.06801388888889,
          "lng": 33.96103055555556
        },
        {
          "brand": "ESSO",
          "address": "Γρηγόρη Αυξεντίου 24, Κοκκινοτριμιθιά Τ.Κ 2660",
          "district": "Κοκκινοτριμιθιά",
          "price": 1.465,
          "mapsUrl": "https://www.google.com/maps?q=35.1481674279843,33.2034919828034",
          "lat": 35.1481674279843,
          "lng": 33.2034919828034
        },
        {
          "brand": "EKO",
          "address": "Γεωργίου Καλογεροπούλου 50 Τ.Κ 4007",
          "district": "Μέσα Γειτονιά",
          "price": 1.465,
          "mapsUrl": "https://www.google.com/maps?q=34.708686,33.038429",
          "lat": 34.708686,
          "lng": 33.038429
        },
        {
          "brand": "PETROLINA",
          "address": "Γρηγόρη Αυξεντίου 30 Τ.Κ 2368",
          "district": "Άγιος Δομέτιος",
          "price": 1.465,
          "mapsUrl": "https://www.google.com/maps?q=35.17131667,33.3369",
          "lat": 35.17131667,
          "lng": 33.3369
        },
        {
          "brand": "ESSO",
          "address": "Μισιαούλη &amp; Καβάζογλου 86-88 Τ.Κ 3016",
          "district": "Λεμεσός",
          "price": 1.465,
          "mapsUrl": "https://www.google.com/maps?q=34.673999828282,33.0231830443581",
          "lat": 34.673999828282,
          "lng": 33.0231830443581
        }
      ]
    },
    "98": {
      "label": "Unleaded 98",
      "stations": [
        {
          "brand": "ENI",
          "address": "Λεωφ. Λάρνακος 125 Τ.Κ 1048",
          "district": "Παλλουριώτισσα",
          "price": 1.439,
          "mapsUrl": "https://www.google.com/maps?q=35.1658,33.3822",
          "lat": 35.1658,
          "lng": 33.3822
        },
        {
          "brand": "FILL N GO",
          "address": "Λεωφ. Λάρνακος 184 Τ.Κ 2103",
          "district": "Αγλαντζιά",
          "price": 1.439,
          "mapsUrl": "https://www.google.com/maps?q=35.146412,33.418324",
          "lat": 35.146412,
          "lng": 33.418324
        },
        {
          "brand": "FILL N GO",
          "address": "Σταδίου 9 (Χαλεπιανές) Τ.Κ 2571",
          "district": "Πέρα Χωριό Νήσου",
          "price": 1.439,
          "mapsUrl": "https://www.google.com/maps?q=35.0533941,33.3820345",
          "lat": 35.0533941,
          "lng": 33.3820345
        },
        {
          "brand": "PETROLINA",
          "address": "Λεωφ. Λάρνακος 5 Τ.Κ 1035",
          "district": "Λευκωσία",
          "price": 1.439,
          "mapsUrl": "https://www.google.com/maps?q=35.1727,33.3726",
          "lat": 35.1727,
          "lng": 33.3726
        },
        {
          "brand": "EKO",
          "address": "Λεωφ. Σαριγιάννη Τ.Κ 2831",
          "district": "Ευρύχου",
          "price": 1.459,
          "mapsUrl": "https://www.google.com/maps?q=35.070157,32.930054",
          "lat": 35.070157,
          "lng": 32.930054
        },
        {
          "brand": "PETROLINA",
          "address": "Αρχ. Μακαρίου Γ΄ 17 Τ.Κ 2800",
          "district": "Κακοπετριά",
          "price": 1.459,
          "mapsUrl": "https://www.google.com/maps?q=34.991233,32.902827",
          "lat": 34.991233,
          "lng": 32.902827
        },
        {
          "brand": "STAROIL",
          "address": "Λεώφ. Μητροπολίτη Χρύσανθου Σαριγιάννη 110 Τ.Κ 2831",
          "district": "Ευρύχου",
          "price": 1.459,
          "mapsUrl": "https://www.google.com/maps?q=35.05938888888888,32.91291666666667",
          "lat": 35.05938888888888,
          "lng": 32.91291666666667
        },
        {
          "brand": "PETROLINA",
          "address": "Γιάννου Κρανιδιώτη 247 Τ.Κ 2233",
          "district": "Λατσιά",
          "price": 1.468,
          "mapsUrl": "https://www.google.com/maps?q=35.078424,33.381658",
          "lat": 35.078424,
          "lng": 33.381658
        },
        {
          "brand": "PETROLINA",
          "address": "Λεωφ. Κυριάκου Μάτση 28, Αγ.Ομολογητές Τ.Κ 1082",
          "district": "Λευκωσία",
          "price": 1.485,
          "mapsUrl": "https://www.google.com/maps?q=35.1591,33.35478333",
          "lat": 35.1591,
          "lng": 33.35478333
        },
        {
          "brand": "EKO",
          "address": "Ελευθερίας 27 Τ.Κ 7102",
          "district": "Αραδίππου",
          "price": 1.494,
          "mapsUrl": "https://www.google.com/maps?q=34.935446,33.59272",
          "lat": 34.935446,
          "lng": 33.59272
        },
        {
          "brand": "EKO",
          "address": "Λεωφ. Αμμοχώστου Τ.Κ 7643",
          "district": "Καλό Χωριό Λάρνακας",
          "price": 1.494,
          "mapsUrl": "https://www.google.com/maps?q=34.927671,33.536158",
          "lat": 34.927671,
          "lng": 33.536158
        },
        {
          "brand": "PETROLINA",
          "address": "Μισιαούλη &amp; Καβάζογλου 73 Τ.Κ 3016",
          "district": "Λεμεσός",
          "price": 1.495,
          "mapsUrl": "https://www.google.com/maps?q=34.673561,33.02208",
          "lat": 34.673561,
          "lng": 33.02208
        },
        {
          "brand": "PETROLINA",
          "address": "Λεωφ. Αρχ. Μακαρίου Γ&#39; 18 Τ.Κ 3061",
          "district": "Λεμεσός",
          "price": 1.495,
          "mapsUrl": "https://www.google.com/maps?q=34.67531667,33.0203",
          "lat": 34.67531667,
          "lng": 33.0203
        },
        {
          "brand": "STAROIL",
          "address": "Δρόμος Λεμεσού - Πλατρών Τ.Κ -",
          "district": "Λεμεσός",
          "price": 1.495,
          "mapsUrl": "https://www.google.com/maps?q=34.753826,32.962765",
          "lat": 34.753826,
          "lng": 32.962765
        },
        {
          "brand": "STAROIL",
          "address": "Δημοκρατίας 40 Τ.Κ 3012",
          "district": "Λεμεσός",
          "price": 1.495,
          "mapsUrl": "https://www.google.com/maps?q=34.66911111111111,33.02386111111111",
          "lat": 34.66911111111111,
          "lng": 33.02386111111111
        },
        {
          "brand": "EKO",
          "address": "Λεωφ. Πρωταρά 161 Τ.Κ 5289",
          "district": "Παραλίμνι",
          "price": 1.495,
          "mapsUrl": "https://www.google.com/maps?q=35.043444,33.994804",
          "lat": 35.043444,
          "lng": 33.994804
        },
        {
          "brand": "EKO",
          "address": "Λεωφ. Πρωταρά - Κάβο Γκρέκο 280 Τ.Κ 5310",
          "district": "Πρωταράς",
          "price": 1.495,
          "mapsUrl": "https://www.google.com/maps?q=35.025105,34.035299",
          "lat": 35.025105,
          "lng": 34.035299
        },
        {
          "brand": "EKO",
          "address": "Γεωργίου Καλογεροπούλου 50 Τ.Κ 4007",
          "district": "Μέσα Γειτονιά",
          "price": 1.498,
          "mapsUrl": "https://www.google.com/maps?q=34.708686,33.038429",
          "lat": 34.708686,
          "lng": 33.038429
        },
        {
          "brand": "EKO",
          "address": "Κωνσταντινουπόλεως 85 Τ.Κ 7041",
          "district": "Δρόμος Καλαβασού - Ζυγίου",
          "price": 1.499,
          "mapsUrl": "https://www.google.com/maps?q=34.742285,33.326538",
          "lat": 34.742285,
          "lng": 33.326538
        },
        {
          "brand": "EKO",
          "address": "Κυριάκου Μάτση 100 Τ.Κ 7102",
          "district": "Αραδίππου",
          "price": 1.499,
          "mapsUrl": "https://www.google.com/maps?q=34.939014,33.601698",
          "lat": 34.939014,
          "lng": 33.601698
        },
        {
          "brand": "STAROIL",
          "address": "Λεωφ. Δρομολαξιάς 61 Τ.Κ 7550",
          "district": "Κίτι",
          "price": 1.499,
          "mapsUrl": "https://www.google.com/maps?q=34.861666666666665,33.57580555555556",
          "lat": 34.861666666666665,
          "lng": 33.57580555555556
        },
        {
          "brand": "EKO",
          "address": "Λεωφ. Λευκωσίας 108 Τ.Κ 2540",
          "district": "Δάλι",
          "price": 1.499,
          "mapsUrl": "https://www.google.com/maps?q=35.0342474332179,33.4088325048936",
          "lat": 35.0342474332179,
          "lng": 33.4088325048936
        },
        {
          "brand": "EKO",
          "address": "Λεωφ. Γερίου Τ.Κ 2200",
          "district": "Γέρι",
          "price": 1.499,
          "mapsUrl": "https://www.google.com/maps?q=35.1061438772506,33.3969139903519",
          "lat": 35.1061438772506,
          "lng": 33.3969139903519
        },
        {
          "brand": "EKO",
          "address": "Λεωφ. Λεμεσού 21, Πέρα Χωριό Τ.Κ 2572",
          "district": "Πέρα Χωριό Νήσου",
          "price": 1.5,
          "mapsUrl": "https://www.google.com/maps?q=35.008912,33.39358",
          "lat": 35.008912,
          "lng": 33.39358
        },
        {
          "brand": "EKO",
          "address": "Λεωφ. Στροβόλου 223 Τ.Κ 2048",
          "district": "Στρόβολος",
          "price": 1.5,
          "mapsUrl": "https://www.google.com/maps?q=35.13313,33.329338",
          "lat": 35.13313,
          "lng": 33.329338
        },
        {
          "brand": "EKO",
          "address": "Αρχ. Μακαρίου Γ΄ 42, Πέρα Χωριό Τ.Κ 2572",
          "district": "Πέρα Χωριό Νήσου",
          "price": 1.5,
          "mapsUrl": "https://www.google.com/maps?q=35.015708,33.401891",
          "lat": 35.015708,
          "lng": 33.401891
        },
        {
          "brand": "ESSO",
          "address": "Λεωφ. Γρηγόρη Αυξεντίου 29, Πάνω Δευτερά Τ.Κ 2460",
          "district": "Δευτερά",
          "price": 1.502,
          "mapsUrl": "https://www.google.com/maps?q=35.081014,33.273498",
          "lat": 35.081014,
          "lng": 33.273498
        },
        {
          "brand": "STAROIL",
          "address": "Κώστα Μισιαούλη 168 Τ.Κ 2480",
          "district": "Τσέρι",
          "price": 1.502,
          "mapsUrl": "https://www.google.com/maps?q=35.080333333333336,33.305138888888884",
          "lat": 35.080333333333336,
          "lng": 33.305138888888884
        },
        {
          "brand": "STAROIL",
          "address": "Λεωφ. Αγίου Γεωργίου 107 Τ.Κ 2304",
          "district": "Λακατάμεια",
          "price": 1.502,
          "mapsUrl": "https://www.google.com/maps?q=35.11461111111111,33.28791666666667",
          "lat": 35.11461111111111,
          "lng": 33.28791666666667
        },
        {
          "brand": "STAROIL",
          "address": "Λεωφ. Καρύων 17 Τ.Κ 5510",
          "district": "Αυγόρου",
          "price": 1.502,
          "mapsUrl": "https://www.google.com/maps?q=35.04402777777778,33.840444444444444",
          "lat": 35.04402777777778,
          "lng": 33.840444444444444
        },
        {
          "brand": "STAROIL",
          "address": "Γρηγόρη Αυξεντίου 29, Πέρα Ορεινής Τ.Κ 2650",
          "district": "Πέρα Ορεινής",
          "price": 1.502,
          "mapsUrl": "https://www.google.com/maps?q=35.04547222222222,33.25463888888889",
          "lat": 35.04547222222222,
          "lng": 33.25463888888889
        },
        {
          "brand": "STAROIL",
          "address": "Πεύκου 71 Τ.Κ 2326",
          "district": "Λακατάμεια",
          "price": 1.502,
          "mapsUrl": "https://www.google.com/maps?q=35.09875,33.31522222222222",
          "lat": 35.09875,
          "lng": 33.31522222222222
        },
        {
          "brand": "STAROIL",
          "address": "Ακανθούς 4, Πάνω Δευτερά Τ.Κ 2460",
          "district": "Δευτερά",
          "price": 1.502,
          "mapsUrl": "https://www.google.com/maps?q=35.090188221784366,33.26715483191825",
          "lat": 35.090188221784366,
          "lng": 33.26715483191825
        },
        {
          "brand": "STAROIL",
          "address": "Λεωφ. Αρχ. Μακαρίου Γ΄ 54 Τ.Κ 2324",
          "district": "Λακατάμεια",
          "price": 1.502,
          "mapsUrl": "https://www.google.com/maps?q=35.11961111111111,33.315999999999995",
          "lat": 35.11961111111111,
          "lng": 33.315999999999995
        },
        {
          "brand": "STAROIL",
          "address": "Μεγάλου Αλεξάνδρου 46, Παλιομέτοχο Τ.Κ 2682",
          "district": "Παλιομέτοχο",
          "price": 1.502,
          "mapsUrl": "https://www.google.com/maps?q=35.137166666666666,33.21402777777778",
          "lat": 35.137166666666666,
          "lng": 33.21402777777778
        },
        {
          "brand": "ΑΝΕΞΑΡΤΗΤΟ ΠΡΑΤΗΡΙΟ",
          "address": "Λεωφ. Κωνσταντίνου &amp; Ευριπίδου 1 Τ.Κ 4651",
          "district": "Τραχώνι",
          "price": 1.503,
          "mapsUrl": "https://www.google.com/maps?q=34.653749999999995,32.97397222222222",
          "lat": 34.653749999999995,
          "lng": 32.97397222222222
        },
        {
          "brand": "PETROLINA",
          "address": "Γεώργιου Χ&quot; Χαραλάμπους 58 Τ.Κ 7700",
          "district": "Λεύκαρα",
          "price": 1.503,
          "mapsUrl": "https://www.google.com/maps?q=34.86518333,33.30683333",
          "lat": 34.86518333,
          "lng": 33.30683333
        },
        {
          "brand": "PETROLINA",
          "address": "Γρηγόρη Αυξεντίου 76, Κοκκινοτριμιθιά Τ.Κ 2660",
          "district": "Κοκκινοτριμιθιά",
          "price": 1.504,
          "mapsUrl": "https://www.google.com/maps?q=35.148666,33.212235",
          "lat": 35.148666,
          "lng": 33.212235
        },
        {
          "brand": "ESSO",
          "address": "Λεωφ. Νίκης 37 Τ.Κ 1087",
          "district": "Ακρόπολη",
          "price": 1.504,
          "mapsUrl": "https://www.google.com/maps?q=35.1565679511699,33.3580602362457",
          "lat": 35.1565679511699,
          "lng": 33.3580602362457
        },
        {
          "brand": "EKO",
          "address": "Λεωφ. Αθαλάσσας 110 Τ.Κ 2024",
          "district": "Δασούπολη",
          "price": 1.504,
          "mapsUrl": "https://www.google.com/maps?q=35.143786,33.36403",
          "lat": 35.143786,
          "lng": 33.36403
        },
        {
          "brand": "PETROLINA",
          "address": "Πάφου 33 Τ.Κ 3052",
          "district": "Λεμεσός",
          "price": 1.504,
          "mapsUrl": "https://www.google.com/maps?q=34.674485,33.013897",
          "lat": 34.674485,
          "lng": 33.013897
        },
        {
          "brand": "PETROLINA",
          "address": "Κάθετος Δρόμος Νέου Λιμανιού Τ.Κ 4150",
          "district": "Κάτω Πολεμίδια",
          "price": 1.504,
          "mapsUrl": "https://www.google.com/maps?q=34.6754556,32.988516",
          "lat": 34.6754556,
          "lng": 32.988516
        },
        {
          "brand": "PETROLINA",
          "address": "Αγίας Φυλάξεως 231 Τ.Κ 3116",
          "district": "Λεμεσός",
          "price": 1.504,
          "mapsUrl": "https://www.google.com/maps?q=34.706675,33.025237",
          "lat": 34.706675,
          "lng": 33.025237
        },
        {
          "brand": "PETROLINA",
          "address": "Λεωφ. Νίκης 1 Τ.Κ 1086",
          "district": "Λευκωσία",
          "price": 1.504,
          "mapsUrl": "https://www.google.com/maps?q=35.162387,33.35887",
          "lat": 35.162387,
          "lng": 33.35887
        },
        {
          "brand": "PETROLINA",
          "address": "Αγίας Φυλάξεως 109 Τ.Κ 3087",
          "district": "Λεμεσός",
          "price": 1.504,
          "mapsUrl": "https://www.google.com/maps?q=34.6921,33.0352",
          "lat": 34.6921,
          "lng": 33.0352
        },
        {
          "brand": "PETROLINA",
          "address": "Λεωφ. Γιώργου Χριστοδουλίδη (Νέο ΓΣΖ) Τ.Κ 6043",
          "district": "Λάρνακα",
          "price": 1.504,
          "mapsUrl": "https://www.google.com/maps?q=34.92536667,33.60203333",
          "lat": 34.92536667,
          "lng": 33.60203333
        },
        {
          "brand": "PETROLINA",
          "address": "Λεωφ. Λεμεσού 9 Τ.Κ 2112",
          "district": "Αγλαντζιά",
          "price": 1.504,
          "mapsUrl": "https://www.google.com/maps?q=35.153083,33.375177",
          "lat": 35.153083,
          "lng": 33.375177
        },
        {
          "brand": "PETROLINA",
          "address": "Λεωφ. Σπ. Κυπριανού 66-68 Τ.Κ 6057",
          "district": "Λάρνακα",
          "price": 1.504,
          "mapsUrl": "https://www.google.com/maps?q=34.93068333,33.62813333",
          "lat": 34.93068333,
          "lng": 33.62813333
        },
        {
          "brand": "PETROLINA",
          "address": "Λεωφ. Αρχ. Μακαρίου Γ΄ 79, Αστρομερίτης Τ.Κ 2722",
          "district": "Αστρομερίτης",
          "price": 1.504,
          "mapsUrl": "https://www.google.com/maps?q=35.138114,33.053639",
          "lat": 35.138114,
          "lng": 33.053639
        },
        {
          "brand": "EKO",
          "address": "Λεωφ. Λεμεσού 7 Τ.Κ 2112",
          "district": "Αγλαντζιά",
          "price": 1.504,
          "mapsUrl": "https://www.google.com/maps?q=35.153483,33.375317",
          "lat": 35.153483,
          "lng": 33.375317
        },
        {
          "brand": "EKO",
          "address": "Αγίας Φυλάξεως 161 Τ.Κ 3083",
          "district": "Λεμεσός",
          "price": 1.504,
          "mapsUrl": "https://www.google.com/maps?q=34.697668,33.032372",
          "lat": 34.697668,
          "lng": 33.032372
        },
        {
          "brand": "EKO",
          "address": "Λεωφ. Φρ. Ρούσβελτ 29 Τ.Κ 3012",
          "district": "Λεμεσός",
          "price": 1.504,
          "mapsUrl": "https://www.google.com/maps?q=34.670055,33.030746",
          "lat": 34.670055,
          "lng": 33.030746
        },
        {
          "brand": "EKO",
          "address": "Λεωφ. Αρτέμιδος 29 Τ.Κ 6025",
          "district": "Λάρνακα",
          "price": 1.504,
          "mapsUrl": "https://www.google.com/maps?q=34.909094,33.629607",
          "lat": 34.909094,
          "lng": 33.629607
        },
        {
          "brand": "EKO",
          "address": "Νίκου Ευαγόρου 50 Τ.Κ 3091",
          "district": "Παλώδια",
          "price": 1.504,
          "mapsUrl": "https://www.google.com/maps?q=34.745754,32.998862",
          "lat": 34.745754,
          "lng": 32.998862
        },
        {
          "brand": "EKO",
          "address": "Γλάδστωνος 133 Τ.Κ 3032",
          "district": "Λεμεσός",
          "price": 1.504,
          "mapsUrl": "https://www.google.com/maps?q=34.684173,33.050839",
          "lat": 34.684173,
          "lng": 33.050839
        },
        {
          "brand": "EKO",
          "address": "Γ. Κρανιδιώτη 5 Τ.Κ 2220",
          "district": "Λατσιά",
          "price": 1.504,
          "mapsUrl": "https://www.google.com/maps?q=35.116846,33.377618",
          "lat": 35.116846,
          "lng": 33.377618
        },
        {
          "brand": "EKO",
          "address": "Αγίου Λουκά 7 Τ.Κ 7731",
          "district": "Σκαρίνου",
          "price": 1.504,
          "mapsUrl": "https://www.google.com/maps?q=34.815172222222216,33.36078055555556",
          "lat": 34.815172222222216,
          "lng": 33.36078055555556
        },
        {
          "brand": "EKO",
          "address": "Λεωφ. Σπ. Χριστοδούλου 47 Τ.Κ 1020",
          "district": "Παλλουριώτισσα",
          "price": 1.504,
          "mapsUrl": "https://www.google.com/maps?q=35.175612,33.373034",
          "lat": 35.175612,
          "lng": 33.373034
        },
        {
          "brand": "EKO",
          "address": "Λεωφ. Σπ. Κυπριανού 75 Τ.Κ 2031",
          "district": "Στρόβολος",
          "price": 1.504,
          "mapsUrl": "https://www.google.com/maps?q=35.124774,33.350359",
          "lat": 35.124774,
          "lng": 33.350359
        },
        {
          "brand": "EKO",
          "address": "Λεωφ. Αρχ. Μακαρίου Γ΄ 35 Τ.Κ 6017",
          "district": "Λάρνακα",
          "price": 1.504,
          "mapsUrl": "https://www.google.com/maps?q=34.922123,33.636282",
          "lat": 34.922123,
          "lng": 33.636282
        },
        {
          "brand": "EKO",
          "address": "Λεωφ. Τάσσου Παπαδόπουλου (δρόμος Λάρνακας - Δεκέλειας) Τ.Κ 6019",
          "district": "Λάρνακα",
          "price": 1.504,
          "mapsUrl": "https://www.google.com/maps?q=34.937023,33.640902",
          "lat": 34.937023,
          "lng": 33.640902
        },
        {
          "brand": "EKO",
          "address": "Λεώφ. Αγίου Αθανασίου 42 Τ.Κ 4102",
          "district": "Άγιος Αθανάσιος",
          "price": 1.504,
          "mapsUrl": "https://www.google.com/maps?q=34.701008,33.059786",
          "lat": 34.701008,
          "lng": 33.059786
        },
        {
          "brand": "EKO",
          "address": "Λεωφ. Σπ. Κυπριανού 5 Τ.Κ 4155",
          "district": "Λεμεσός",
          "price": 1.504,
          "mapsUrl": "https://www.google.com/maps?q=34.686762,33.015375",
          "lat": 34.686762,
          "lng": 33.015375
        },
        {
          "brand": "EKO",
          "address": "Οδυσσέα Γεωργίου 2 Τ.Κ 4651",
          "district": "Τραχώνι",
          "price": 1.504,
          "mapsUrl": "https://www.google.com/maps?q=34.654152777777774,32.976061111111115",
          "lat": 34.654152777777774,
          "lng": 32.976061111111115
        },
        {
          "brand": "EKO",
          "address": "Λεωφ. Δημοκρατίας 54 Τ.Κ 2034",
          "district": "Στρόβολος",
          "price": 1.504,
          "mapsUrl": "https://www.google.com/maps?q=35.131505,33.361001",
          "lat": 35.131505,
          "lng": 33.361001
        },
        {
          "brand": "EKO",
          "address": "Λεωφ. Αγλαντζιάς 35 Τ.Κ 2108",
          "district": "Αγλαντζιά",
          "price": 1.504,
          "mapsUrl": "https://www.google.com/maps?q=35.156854,33.389026",
          "lat": 35.156854,
          "lng": 33.389026
        },
        {
          "brand": "EKO",
          "address": "Λεωφ. Κυριάκου Μάτση 22 Τ.Κ 2408",
          "district": "Έγκωμη",
          "price": 1.504,
          "mapsUrl": "https://www.google.com/maps?q=35.168024,33.32996",
          "lat": 35.168024,
          "lng": 33.32996
        },
        {
          "brand": "EKO",
          "address": "Μάρκου Δράκου 1 Τ.Κ 5510",
          "district": "Αυγόρου",
          "price": 1.504,
          "mapsUrl": "https://www.google.com/maps?q=35.04172,33.840063",
          "lat": 35.04172,
          "lng": 33.840063
        },
        {
          "brand": "EKO",
          "address": "Κάθετος Δρόμος Νέου Λιμανιού Τ.Κ 4150",
          "district": "Κάτω Πολεμίδια",
          "price": 1.504,
          "mapsUrl": "https://www.google.com/maps?q=34.673932,32.988493",
          "lat": 34.673932,
          "lng": 32.988493
        },
        {
          "brand": "EKO",
          "address": "Γωνία Ναυαρίνου 2 &amp; Ταγματάρχου Πουλίου Τ.Κ 1100",
          "district": "Λευκωσία",
          "price": 1.504,
          "mapsUrl": "https://www.google.com/maps?q=35.171615,33.345687",
          "lat": 35.171615,
          "lng": 33.345687
        },
        {
          "brand": "EKO",
          "address": "Λεωφ. Αναλιόντα 155 Τ.Κ 2480",
          "district": "Τσέρι",
          "price": 1.504,
          "mapsUrl": "https://www.google.com/maps?q=35.053153,33.325129",
          "lat": 35.053153,
          "lng": 33.325129
        },
        {
          "brand": "EKO",
          "address": "Λεωφ. Λουκή Ακρίτα 1 Τ.Κ 1100",
          "district": "Λευκωσία",
          "price": 1.504,
          "mapsUrl": "https://www.google.com/maps?q=35.17265,33.350405",
          "lat": 35.17265,
          "lng": 33.350405
        },
        {
          "brand": "EKO",
          "address": "Λεωφόρος Στροβόλου 98 Τ.Κ 2325",
          "district": "Λακατάμεια",
          "price": 1.504,
          "mapsUrl": "https://www.google.com/maps?q=35.106167,33.330644",
          "lat": 35.106167,
          "lng": 33.330644
        },
        {
          "brand": "EKO",
          "address": "Λεωφ. Τσερίου 127 Στρόβολος Τ.Κ 2045",
          "district": "Στρόβολος",
          "price": 1.504,
          "mapsUrl": "https://www.google.com/maps?q=35.128667,33.33847",
          "lat": 35.128667,
          "lng": 33.33847
        },
        {
          "brand": "EKO",
          "address": "Λεώφ. Δημητρίου Παπανικολή 6, Άγιοι Ανάργυροι Τ.Κ 6053",
          "district": "Λάρνακα",
          "price": 1.504,
          "mapsUrl": "https://www.google.com/maps?q=34.93123,33.623506",
          "lat": 34.93123,
          "lng": 33.623506
        },
        {
          "brand": "EKO",
          "address": "Παραλιμνίου 56 Τ.Κ 5311",
          "district": "Σωτήρα",
          "price": 1.504,
          "mapsUrl": "https://www.google.com/maps?q=35.024897,33.963177",
          "lat": 35.024897,
          "lng": 33.963177
        },
        {
          "brand": "EKO",
          "address": "Πάφου 11 Τ.Κ 3052",
          "district": "Λεμεσός",
          "price": 1.504,
          "mapsUrl": "https://www.google.com/maps?q=34.673891,33.015811",
          "lat": 34.673891,
          "lng": 33.015811
        },
        {
          "brand": "EKO",
          "address": "Λεωφ. Αθαλάσσας 152 Τ.Κ 2024",
          "district": "Δασούπολη",
          "price": 1.504,
          "mapsUrl": "https://www.google.com/maps?q=35.141992,33.368785",
          "lat": 35.141992,
          "lng": 33.368785
        },
        {
          "brand": "EKO",
          "address": "Λεωφ. Αρχ.Μακαρίου Γ&#39; 158 Τ.Κ 5380",
          "district": "Δερύνεια",
          "price": 1.504,
          "mapsUrl": "https://www.google.com/maps?q=35.055028,33.942739",
          "lat": 35.055028,
          "lng": 33.942739
        },
        {
          "brand": "EKO",
          "address": "Λεωφ. Αρχ.Μιχαήλ 43 (Παρισσινός) Τ.Κ 2057",
          "district": "Στρόβολος",
          "price": 1.504,
          "mapsUrl": "https://www.google.com/maps?q=35.154783,33.331971",
          "lat": 35.154783,
          "lng": 33.331971
        },
        {
          "brand": "EKO",
          "address": "Λεωφ. Σταυρού 25 Τ.Κ 2035",
          "district": "Στρόβολος",
          "price": 1.504,
          "mapsUrl": "https://www.google.com/maps?q=35.137332,33.350634",
          "lat": 35.137332,
          "lng": 33.350634
        },
        {
          "brand": "EKO",
          "address": "Λεωφ. Σπύρου Κυπριανού 51 Τ.Κ 7040",
          "district": "Ορόκλινη",
          "price": 1.504,
          "mapsUrl": "https://www.google.com/maps?q=34.971337,33.654541",
          "lat": 34.971337,
          "lng": 33.654541
        },
        {
          "brand": "EKO",
          "address": "Λεωφ. Αρχ. Μακαρίου Γ΄ 61, Κοκκινοτριμιθιά Τ.Κ 2660",
          "district": "Κοκκινοτριμιθιά",
          "price": 1.504,
          "mapsUrl": "https://www.google.com/maps?q=35.146893,33.187866",
          "lat": 35.146893,
          "lng": 33.187866
        },
        {
          "brand": "EKO",
          "address": "Λεωφ. Δημοσθένη Σεβέρη 49 Τ.Κ 1080",
          "district": "Λευκωσία",
          "price": 1.504,
          "mapsUrl": "https://www.google.com/maps?q=35.15764,33.352016",
          "lat": 35.15764,
          "lng": 33.352016
        },
        {
          "brand": "EKO",
          "address": "Γ.Γρίβα Διγενή 12 Τ.Κ 2614",
          "district": "Αρεδιού",
          "price": 1.504,
          "mapsUrl": "https://www.google.com/maps?q=35.058393,33.206986",
          "lat": 35.058393,
          "lng": 33.206986
        },
        {
          "brand": "EKO",
          "address": "Λεωφ. Σπ. Κυπριανού 28 Τ.Κ 4154",
          "district": "Κάτω Πολεμίδια",
          "price": 1.504,
          "mapsUrl": "https://www.google.com/maps?q=34.685318,33.013874",
          "lat": 34.685318,
          "lng": 33.013874
        },
        {
          "brand": "EKO",
          "address": "Λεωφ. Καντάρας 23 Τ.Κ 1037",
          "district": "Καϊμακλί",
          "price": 1.504,
          "mapsUrl": "https://www.google.com/maps?q=35.183991,33.387964",
          "lat": 35.183991,
          "lng": 33.387964
        },
        {
          "brand": "EKO",
          "address": "Λεωφ. Διγενή Ακρίτα 7-9 Τ.Κ 1055",
          "district": "Λευκωσία",
          "price": 1.504,
          "mapsUrl": "https://www.google.com/maps?q=35.170191,33.374402",
          "lat": 35.170191,
          "lng": 33.374402
        },
        {
          "brand": "EKO",
          "address": "Λεωφ. Στασίνου Τ.Κ 1060",
          "district": "Λευκωσία",
          "price": 1.504,
          "mapsUrl": "https://www.google.com/maps?q=35.168758,33.363069",
          "lat": 35.168758,
          "lng": 33.363069
        },
        {
          "brand": "EKO",
          "address": "Λεωφ. Αρχ. Μακαρίου Γ΄ 20 Τ.Κ 7080",
          "district": "Πύλα",
          "price": 1.504,
          "mapsUrl": "https://www.google.com/maps?q=34.992258,33.683025",
          "lat": 34.992258,
          "lng": 33.683025
        },
        {
          "brand": "EKO",
          "address": "Λεωφ. Δημητρίου Βικέλα 97 Τ.Κ 2037",
          "district": "Στρόβολος",
          "price": 1.504,
          "mapsUrl": "https://www.google.com/maps?q=35.117444444444445,33.356611111111114",
          "lat": 35.117444444444445,
          "lng": 33.356611111111114
        },
        {
          "brand": "EKO",
          "address": "Λεωφ. Γ.Γρίβα Διγενή 7 Τ.Κ 6010",
          "district": "Λάρνακα",
          "price": 1.504,
          "mapsUrl": "https://www.google.com/maps?q=34.916785,33.623624",
          "lat": 34.916785,
          "lng": 33.623624
        },
        {
          "brand": "EKO",
          "address": "Λεωφ. Αρχ. Μακαρίου Γ&#39; 162 Τ.Κ 3026",
          "district": "Λεμεσός",
          "price": 1.504,
          "mapsUrl": "https://www.google.com/maps?q=34.687006,33.040061",
          "lat": 34.687006,
          "lng": 33.040061
        },
        {
          "brand": "EKO",
          "address": "Λεωφ. Γρηγόρη Αυξεντίου 67, Αγία Βαρβάρα Τ.Κ 2560",
          "district": "Αγία Βαρβάρα",
          "price": 1.504,
          "mapsUrl": "https://www.google.com/maps?q=35.002166,33.380229",
          "lat": 35.002166,
          "lng": 33.380229
        },
        {
          "brand": "EKO",
          "address": "Λεωφ. Λάρνακος 103 Τ.Κ 2103",
          "district": "Αγλαντζιά",
          "price": 1.504,
          "mapsUrl": "https://www.google.com/maps?q=35.155545,33.398449",
          "lat": 35.155545,
          "lng": 33.398449
        },
        {
          "brand": "EKO",
          "address": "Καλαμών 21 Τ.Κ 2032",
          "district": "Στρόβολος",
          "price": 1.504,
          "mapsUrl": "https://www.google.com/maps?q=35.124269,33.372145",
          "lat": 35.124269,
          "lng": 33.372145
        },
        {
          "brand": "EKO",
          "address": "Μαργαρίτας 45 Τ.Κ 4878",
          "district": "Πελένδρι",
          "price": 1.504,
          "mapsUrl": "https://www.google.com/maps?q=34.890934,32.957813",
          "lat": 34.890934,
          "lng": 32.957813
        },
        {
          "brand": "EKO",
          "address": "Λεωφ.Αρχ. Μακαρίου Γ&#39; 70, Αστρομερίτης Τ.Κ 2722",
          "district": "Αστρομερίτης",
          "price": 1.504,
          "mapsUrl": "https://www.google.com/maps?q=35.138374,33.051492",
          "lat": 35.138374,
          "lng": 33.051492
        },
        {
          "brand": "EKO",
          "address": "Λεωφόρος Λεμεσού 341, Πέρα Χωριό (Βιομηχανική Περιοχή Νήσου) Τ.Κ 2571",
          "district": "Πέρα Χωριό Νήσου",
          "price": 1.504,
          "mapsUrl": "https://www.google.com/maps?q=35.052276,33.387661",
          "lat": 35.052276,
          "lng": 33.387661
        },
        {
          "brand": "EKO",
          "address": "Αγίου Γεωργίου 99 Τ.Κ 4180",
          "district": "Ύψωνας",
          "price": 1.504,
          "mapsUrl": "https://www.google.com/maps?q=34.682444,32.952385",
          "lat": 34.682444,
          "lng": 32.952385
        }
      ]
    },
    "diesel": {
      "label": "Diesel",
      "stations": [
        {
          "brand": "SHELL",
          "address": "Δρόμος Καλού Χωριού Λάρνακας Τ.Κ 7643",
          "district": "Καλό Χωριό Λάρνακας",
          "price": 1.484,
          "mapsUrl": "https://www.google.com/maps?q=34.91073084,33.562161",
          "lat": 34.91073084,
          "lng": 33.562161
        },
        {
          "brand": "PETROLINA",
          "address": "Λεωφ. Αμμοχώστου Τ.Κ 7643",
          "district": "Καλό Χωριό Λάρνακας",
          "price": 1.484,
          "mapsUrl": "https://www.google.com/maps?q=34.92598333,33.54103333",
          "lat": 34.92598333,
          "lng": 33.54103333
        },
        {
          "brand": "SHELL",
          "address": "Αρχ. Μακαρίου Γ&#39; 126 Τ.Κ 2827",
          "district": "Γαλάτα",
          "price": 1.489,
          "mapsUrl": "https://www.google.com/maps?q=34.99814166666667,32.898002777777776",
          "lat": 34.99814166666667,
          "lng": 32.898002777777776
        },
        {
          "brand": "FILL N GO",
          "address": "Λεωφ. Λάρνακος 1 Τ.Κ 7648",
          "district": "Πυργά",
          "price": 1.489,
          "mapsUrl": "https://www.google.com/maps?q=34.92639,33.44032",
          "lat": 34.92639,
          "lng": 33.44032
        },
        {
          "brand": "PETROLINA",
          "address": "Λεωφ. Ελλάδος 65 Τ.Κ 7101",
          "district": "Αραδίππου",
          "price": 1.489,
          "mapsUrl": "https://www.google.com/maps?q=34.92766666666667,33.58225",
          "lat": 34.92766666666667,
          "lng": 33.58225
        },
        {
          "brand": "SHELL",
          "address": "Λεωφ. Ελλάδος 76 Τ.Κ 7101",
          "district": "Αραδίππου",
          "price": 1.489,
          "mapsUrl": "https://www.google.com/maps?q=34.927460394756885,33.58150402848419",
          "lat": 34.927460394756885,
          "lng": 33.58150402848419
        },
        {
          "brand": "EKO",
          "address": "Λεωφ. Σαριγιάννη Τ.Κ 2831",
          "district": "Ευρύχου",
          "price": 1.49,
          "mapsUrl": "https://www.google.com/maps?q=35.070157,32.930054",
          "lat": 35.070157,
          "lng": 32.930054
        },
        {
          "brand": "SHELL",
          "address": "Αρχ. Μακαρίου Γ&#39; 11 Τ.Κ 2800",
          "district": "Κακοπετριά",
          "price": 1.49,
          "mapsUrl": "https://www.google.com/maps?q=34.992275,32.90260277777778",
          "lat": 34.992275,
          "lng": 32.90260277777778
        },
        {
          "brand": "PETROLINA",
          "address": "Αρχ. Μακαρίου Γ΄ 17 Τ.Κ 2800",
          "district": "Κακοπετριά",
          "price": 1.49,
          "mapsUrl": "https://www.google.com/maps?q=34.991233,32.902827",
          "lat": 34.991233,
          "lng": 32.902827
        },
        {
          "brand": "STAROIL",
          "address": "Λεώφ. Μητροπολίτη Χρύσανθου Σαριγιάννη 110 Τ.Κ 2831",
          "district": "Ευρύχου",
          "price": 1.49,
          "mapsUrl": "https://www.google.com/maps?q=35.05938888888888,32.91291666666667",
          "lat": 35.05938888888888,
          "lng": 32.91291666666667
        },
        {
          "brand": "PETROLINA",
          "address": "Γιάννου Κρανιδιώτη 247 Τ.Κ 2233",
          "district": "Λατσιά",
          "price": 1.499,
          "mapsUrl": "https://www.google.com/maps?q=35.078424,33.381658",
          "lat": 35.078424,
          "lng": 33.381658
        },
        {
          "brand": "SHELL",
          "address": "Tσερίου 36 Νήσου (Χαλεπιανές) Τ.Κ 2571",
          "district": "Πέρα Χωριό Νήσου",
          "price": 1.499,
          "mapsUrl": "https://www.google.com/maps?q=35.059124999999995,33.36853611111111",
          "lat": 35.059124999999995,
          "lng": 33.36853611111111
        },
        {
          "brand": "SHELL",
          "address": "Λεωφ. Αμμοχώστου 57 Τ.Κ 1016",
          "district": "Παλλουριώτισσα",
          "price": 1.499,
          "mapsUrl": "https://www.google.com/maps?q=35.170154,33.397329",
          "lat": 35.170154,
          "lng": 33.397329
        },
        {
          "brand": "ENI",
          "address": "Λεωφ. Λάρνακος 125 Τ.Κ 1048",
          "district": "Παλλουριώτισσα",
          "price": 1.499,
          "mapsUrl": "https://www.google.com/maps?q=35.1658,33.3822",
          "lat": 35.1658,
          "lng": 33.3822
        },
        {
          "brand": "FILL N GO",
          "address": "Λεωφ. Λάρνακος 184 Τ.Κ 2103",
          "district": "Αγλαντζιά",
          "price": 1.499,
          "mapsUrl": "https://www.google.com/maps?q=35.146412,33.418324",
          "lat": 35.146412,
          "lng": 33.418324
        },
        {
          "brand": "FILL N GO",
          "address": "Σταδίου 9 (Χαλεπιανές) Τ.Κ 2571",
          "district": "Πέρα Χωριό Νήσου",
          "price": 1.499,
          "mapsUrl": "https://www.google.com/maps?q=35.0533941,33.3820345",
          "lat": 35.0533941,
          "lng": 33.3820345
        },
        {
          "brand": "PETROLINA",
          "address": "Λεωφ. Καντάρας 78 Τ.Κ 1027",
          "district": "Καϊμακλί",
          "price": 1.499,
          "mapsUrl": "https://www.google.com/maps?q=35.185485,33.39097",
          "lat": 35.185485,
          "lng": 33.39097
        },
        {
          "brand": "PETROLINA",
          "address": "Λεωφ. Αμμοχώστου 67 Τ.Κ 1048",
          "district": "Παλλουριώτισσα",
          "price": 1.499,
          "mapsUrl": "https://www.google.com/maps?q=35.168195,33.39786",
          "lat": 35.168195,
          "lng": 33.39786
        },
        {
          "brand": "PETROLINA",
          "address": "Λεωφ. Λάρνακος 5 Τ.Κ 1035",
          "district": "Λευκωσία",
          "price": 1.499,
          "mapsUrl": "https://www.google.com/maps?q=35.1727,33.3726",
          "lat": 35.1727,
          "lng": 33.3726
        },
        {
          "brand": "ESSO",
          "address": "Λεωφ. Τζων Κέννετυ 78 Τ.Κ 1046",
          "district": "Παλλουριώτισσα",
          "price": 1.519,
          "mapsUrl": "https://www.google.com/maps?q=35.172382618025,33.3880451055572",
          "lat": 35.172382618025,
          "lng": 33.3880451055572
        },
        {
          "brand": "EKO",
          "address": "28ης Οκτωβρίου 12, Κόρνος Τ.Κ 7640",
          "district": "Κόρνος",
          "price": 1.525,
          "mapsUrl": "https://www.google.com/maps?q=34.927328,33.413823",
          "lat": 34.927328,
          "lng": 33.413823
        },
        {
          "brand": "ESSO",
          "address": "Λεωφ. Διγενή Ακρίτα 43, Άγιος Αντώνιος Τ.Κ 1070",
          "district": "Λευκωσία",
          "price": 1.529,
          "mapsUrl": "https://www.google.com/maps?q=35.1668579182817,33.3703520423279",
          "lat": 35.1668579182817,
          "lng": 33.3703520423279
        },
        {
          "brand": "PETROLINA",
          "address": "Λεωφ. Τσερίου 20, Νήσου (Χαλεπιανές) Τ.Κ 2571",
          "district": "Πέρα Χωριό Νήσου",
          "price": 1.538,
          "mapsUrl": "https://www.google.com/maps?q=35.055571,33.374225",
          "lat": 35.055571,
          "lng": 33.374225
        },
        {
          "brand": "PETROLINA",
          "address": "Λεωφ. Λεμεσού, Νήσου Τ.Κ 2571",
          "district": "Πέρα Χωριό Νήσου",
          "price": 1.538,
          "mapsUrl": "https://www.google.com/maps?q=35.0424,33.387107",
          "lat": 35.0424,
          "lng": 33.387107
        },
        {
          "brand": "EKO",
          "address": "Λεωφ. Διγενή Ακρίτα 7-9 Τ.Κ 1055",
          "district": "Λευκωσία",
          "price": 1.538,
          "mapsUrl": "https://www.google.com/maps?q=35.170191,33.374402",
          "lat": 35.170191,
          "lng": 33.374402
        },
        {
          "brand": "EKO",
          "address": "Λεωφόρος Λεμεσού 341, Πέρα Χωριό (Βιομηχανική Περιοχή Νήσου) Τ.Κ 2571",
          "district": "Πέρα Χωριό Νήσου",
          "price": 1.538,
          "mapsUrl": "https://www.google.com/maps?q=35.052276,33.387661",
          "lat": 35.052276,
          "lng": 33.387661
        },
        {
          "brand": "EKO",
          "address": "Λεωφ. Λάρνακος 103 Τ.Κ 2103",
          "district": "Αγλαντζιά",
          "price": 1.538,
          "mapsUrl": "https://www.google.com/maps?q=35.155545,33.398449",
          "lat": 35.155545,
          "lng": 33.398449
        },
        {
          "brand": "EKO",
          "address": "Λεωφ. Αγλαντζιάς 35 Τ.Κ 2108",
          "district": "Αγλαντζιά",
          "price": 1.538,
          "mapsUrl": "https://www.google.com/maps?q=35.156854,33.389026",
          "lat": 35.156854,
          "lng": 33.389026
        },
        {
          "brand": "EKO",
          "address": "Λεωφ. Λευκωσίας 108 Τ.Κ 2540",
          "district": "Δάλι",
          "price": 1.538,
          "mapsUrl": "https://www.google.com/maps?q=35.0342474332179,33.4088325048936",
          "lat": 35.0342474332179,
          "lng": 33.4088325048936
        },
        {
          "brand": "EKO",
          "address": "Λεωφ. Γερίου Τ.Κ 2200",
          "district": "Γέρι",
          "price": 1.538,
          "mapsUrl": "https://www.google.com/maps?q=35.1061438772506,33.3969139903519",
          "lat": 35.1061438772506,
          "lng": 33.3969139903519
        },
        {
          "brand": "PETROLINA",
          "address": "Γρηγόρη Αυξεντίου 76, Κοκκινοτριμιθιά Τ.Κ 2660",
          "district": "Κοκκινοτριμιθιά",
          "price": 1.545,
          "mapsUrl": "https://www.google.com/maps?q=35.148666,33.212235",
          "lat": 35.148666,
          "lng": 33.212235
        },
        {
          "brand": "ESSO",
          "address": "Λεωφ. Νίκης 37 Τ.Κ 1087",
          "district": "Ακρόπολη",
          "price": 1.545,
          "mapsUrl": "https://www.google.com/maps?q=35.1565679511699,33.3580602362457",
          "lat": 35.1565679511699,
          "lng": 33.3580602362457
        },
        {
          "brand": "SHELL",
          "address": "Λεωφ. Αρχ. Μακαρίου Γ΄ 276 Τ.Κ 2311",
          "district": "Λακατάμεια",
          "price": 1.545,
          "mapsUrl": "https://www.google.com/maps?q=35.103889,33.302389",
          "lat": 35.103889,
          "lng": 33.302389
        },
        {
          "brand": "SHELL",
          "address": "Λεωφ. Αθαλάσσας 33 Τ.Κ 2012",
          "district": "Στρόβολος",
          "price": 1.545,
          "mapsUrl": "https://www.google.com/maps?q=35.14863888888889,33.35194444444445",
          "lat": 35.14863888888889,
          "lng": 33.35194444444445
        },
        {
          "brand": "SHELL",
          "address": "Λεωφ. Τσερίου 228 Τ.Κ 2044",
          "district": "Στρόβολος",
          "price": 1.545,
          "mapsUrl": "https://www.google.com/maps?q=35.1183,33.33324166666667",
          "lat": 35.1183,
          "lng": 33.33324166666667
        },
        {
          "brand": "SHELL",
          "address": "Λεωφ. Αρχ. Μακαρίου Γ΄ 57 Τ.Κ 6017",
          "district": "Λάρνακα",
          "price": 1.545,
          "mapsUrl": "https://www.google.com/maps?q=34.925152777777775,33.6367",
          "lat": 34.925152777777775,
          "lng": 33.6367
        },
        {
          "brand": "SHELL",
          "address": "Λεωφ. Αρχ. Μακαρίου Γ΄44, Κλήρου Τ.Κ 2600",
          "district": "Κλήρου",
          "price": 1.545,
          "mapsUrl": "https://www.google.com/maps?q=35.02599444444444,33.17898333333333",
          "lat": 35.02599444444444,
          "lng": 33.17898333333333
        },
        {
          "brand": "SHELL",
          "address": "Λεωφ. Αρχ. Μακαρίου Γ΄ 49 Τ.Κ 1065",
          "district": "Λευκωσία",
          "price": 1.545,
          "mapsUrl": "https://www.google.com/maps?q=35.164144444444446,33.364491666666666",
          "lat": 35.164144444444446,
          "lng": 33.364491666666666
        },
        {
          "brand": "ESSO",
          "address": "Λεωφ. Γρηγόρη Αυξεντίου 29, Πάνω Δευτερά Τ.Κ 2460",
          "district": "Δευτερά",
          "price": 1.545,
          "mapsUrl": "https://www.google.com/maps?q=35.081014,33.273498",
          "lat": 35.081014,
          "lng": 33.273498
        },
        {
          "brand": "PETROLINA",
          "address": "Λεωφ. Νίκης 1 Τ.Κ 1086",
          "district": "Λευκωσία",
          "price": 1.545,
          "mapsUrl": "https://www.google.com/maps?q=35.162387,33.35887",
          "lat": 35.162387,
          "lng": 33.35887
        },
        {
          "brand": "EKO",
          "address": "Λεωφόρος Στροβόλου 98 Τ.Κ 2325",
          "district": "Λακατάμεια",
          "price": 1.545,
          "mapsUrl": "https://www.google.com/maps?q=35.106167,33.330644",
          "lat": 35.106167,
          "lng": 33.330644
        },
        {
          "brand": "EKO",
          "address": "Λεωφ. Αρχ. Μακαρίου Γ΄ 35 Τ.Κ 6017",
          "district": "Λάρνακα",
          "price": 1.545,
          "mapsUrl": "https://www.google.com/maps?q=34.922123,33.636282",
          "lat": 34.922123,
          "lng": 33.636282
        },
        {
          "brand": "EKO",
          "address": "Λεωφ. Αρχ. Μακαρίου Γ΄ 61, Κοκκινοτριμιθιά Τ.Κ 2660",
          "district": "Κοκκινοτριμιθιά",
          "price": 1.545,
          "mapsUrl": "https://www.google.com/maps?q=35.146893,33.187866",
          "lat": 35.146893,
          "lng": 33.187866
        },
        {
          "brand": "EKO",
          "address": "Λεωφ. Δημοσθένη Σεβέρη 49 Τ.Κ 1080",
          "district": "Λευκωσία",
          "price": 1.545,
          "mapsUrl": "https://www.google.com/maps?q=35.15764,33.352016",
          "lat": 35.15764,
          "lng": 33.352016
        },
        {
          "brand": "EKO",
          "address": "Γ.Γρίβα Διγενή 12 Τ.Κ 2614",
          "district": "Αρεδιού",
          "price": 1.545,
          "mapsUrl": "https://www.google.com/maps?q=35.058393,33.206986",
          "lat": 35.058393,
          "lng": 33.206986
        },
        {
          "brand": "EKO",
          "address": "Μελίνας Μερκούρη 22 Τ.Κ 2311",
          "district": "Λακατάμεια",
          "price": 1.545,
          "mapsUrl": "https://www.google.com/maps?q=35.110876,33.309251",
          "lat": 35.110876,
          "lng": 33.309251
        },
        {
          "brand": "STAROIL",
          "address": "Πεύκου 71 Τ.Κ 2326",
          "district": "Λακατάμεια",
          "price": 1.545,
          "mapsUrl": "https://www.google.com/maps?q=35.09875,33.31522222222222",
          "lat": 35.09875,
          "lng": 33.31522222222222
        },
        {
          "brand": "STAROIL",
          "address": "Μεγάλου Αλεξάνδρου 46, Παλιομέτοχο Τ.Κ 2682",
          "district": "Παλιομέτοχο",
          "price": 1.545,
          "mapsUrl": "https://www.google.com/maps?q=35.137166666666666,33.21402777777778",
          "lat": 35.137166666666666,
          "lng": 33.21402777777778
        },
        {
          "brand": "STAROIL",
          "address": "Ακανθούς 4, Πάνω Δευτερά Τ.Κ 2460",
          "district": "Δευτερά",
          "price": 1.545,
          "mapsUrl": "https://www.google.com/maps?q=35.090188221784366,33.26715483191825",
          "lat": 35.090188221784366,
          "lng": 33.26715483191825
        },
        {
          "brand": "STAROIL",
          "address": "Λεωφ. Αρχ. Μακαρίου Γ΄ 54 Τ.Κ 2324",
          "district": "Λακατάμεια",
          "price": 1.545,
          "mapsUrl": "https://www.google.com/maps?q=35.11961111111111,33.315999999999995",
          "lat": 35.11961111111111,
          "lng": 33.315999999999995
        },
        {
          "brand": "STAROIL",
          "address": "Λεωφ. Αγίου Γεωργίου 107 Τ.Κ 2304",
          "district": "Λακατάμεια",
          "price": 1.545,
          "mapsUrl": "https://www.google.com/maps?q=35.11461111111111,33.28791666666667",
          "lat": 35.11461111111111,
          "lng": 33.28791666666667
        },
        {
          "brand": "STAROIL",
          "address": "Γρηγόρη Αυξεντίου 29, Πέρα Ορεινής Τ.Κ 2650",
          "district": "Πέρα Ορεινής",
          "price": 1.545,
          "mapsUrl": "https://www.google.com/maps?q=35.04547222222222,33.25463888888889",
          "lat": 35.04547222222222,
          "lng": 33.25463888888889
        },
        {
          "brand": "STAROIL",
          "address": "Κώστα Μισιαούλη 168 Τ.Κ 2480",
          "district": "Τσέρι",
          "price": 1.545,
          "mapsUrl": "https://www.google.com/maps?q=35.080333333333336,33.305138888888884",
          "lat": 35.080333333333336,
          "lng": 33.305138888888884
        },
        {
          "brand": "ESSO",
          "address": "Λεωφ. Γ.Γρίβα Διγενή 31-35 Τ.Κ 1082",
          "district": "Λευκωσία",
          "price": 1.545,
          "mapsUrl": "https://www.google.com/maps?q=35.1628065376475,33.3572777748687",
          "lat": 35.1628065376475,
          "lng": 33.3572777748687
        },
        {
          "brand": "PETROLINA",
          "address": "Λεωφ. Κυριάκου Μάτση 28, Αγ.Ομολογητές Τ.Κ 1082",
          "district": "Λευκωσία",
          "price": 1.545,
          "mapsUrl": "https://www.google.com/maps?q=35.1591,33.35478333",
          "lat": 35.1591,
          "lng": 33.35478333
        },
        {
          "brand": "ESSO",
          "address": "Λεωφ. Στροβόλου 37 Τ.Κ 2018",
          "district": "Στρόβολος",
          "price": 1.545,
          "mapsUrl": "https://www.google.com/maps?q=35.1487856870168,33.346567328836",
          "lat": 35.1487856870168,
          "lng": 33.346567328836
        },
        {
          "brand": "EKO",
          "address": "Λεωφ. Αμμοχώστου Τ.Κ 7643",
          "district": "Καλό Χωριό Λάρνακας",
          "price": 1.545,
          "mapsUrl": "https://www.google.com/maps?q=34.927671,33.536158",
          "lat": 34.927671,
          "lng": 33.536158
        },
        {
          "brand": "EKO",
          "address": "Ελευθερίας 27 Τ.Κ 7102",
          "district": "Αραδίππου",
          "price": 1.545,
          "mapsUrl": "https://www.google.com/maps?q=34.935446,33.59272",
          "lat": 34.935446,
          "lng": 33.59272
        },
        {
          "brand": "EKO",
          "address": "Κυριάκου Μάτση 100 Τ.Κ 7102",
          "district": "Αραδίππου",
          "price": 1.547,
          "mapsUrl": "https://www.google.com/maps?q=34.939014,33.601698",
          "lat": 34.939014,
          "lng": 33.601698
        },
        {
          "brand": "ESSO",
          "address": "Στροβόλου 19 Τ.Κ 2480",
          "district": "Τσέρι",
          "price": 1.548,
          "mapsUrl": "https://www.google.com/maps?q=35.0787361111111,33.3254490740741",
          "lat": 35.0787361111111,
          "lng": 33.3254490740741
        },
        {
          "brand": "PETROLINA",
          "address": "Λεωφ. Γιώργου Χριστοδουλίδη (Νέο ΓΣΖ) Τ.Κ 6043",
          "district": "Λάρνακα",
          "price": 1.548,
          "mapsUrl": "https://www.google.com/maps?q=34.92536667,33.60203333",
          "lat": 34.92536667,
          "lng": 33.60203333
        },
        {
          "brand": "PETROLINA",
          "address": "Λεωφ. Σπ. Κυπριανού 22 Τ.Κ 2237",
          "district": "Λατσιά",
          "price": 1.548,
          "mapsUrl": "https://www.google.com/maps?q=35.1056,33.3644",
          "lat": 35.1056,
          "lng": 33.3644
        },
        {
          "brand": "ESSO",
          "address": "Γρηγόρη Αυξεντίου 24, Κοκκινοτριμιθιά Τ.Κ 2660",
          "district": "Κοκκινοτριμιθιά",
          "price": 1.549,
          "mapsUrl": "https://www.google.com/maps?q=35.1481674279843,33.2034919828034",
          "lat": 35.1481674279843,
          "lng": 33.2034919828034
        },
        {
          "brand": "ESSO",
          "address": "Γιάννου Κρανιδιώτη 112 Τ.Κ 2235",
          "district": "Λατσιά",
          "price": 1.558,
          "mapsUrl": "https://www.google.com/maps?q=35.0976900488074,33.3792905141556",
          "lat": 35.0976900488074,
          "lng": 33.3792905141556
        },
        {
          "brand": "SHELL",
          "address": "28ης Οκτωβρίου 305 Τ.Κ 3105",
          "district": "Λεμεσός",
          "price": 1.563,
          "mapsUrl": "https://www.google.com/maps?q=34.68142222222222,33.05461388888889",
          "lat": 34.68142222222222,
          "lng": 33.05461388888889
        },
        {
          "brand": "SHELL",
          "address": "Φρ. Ρούσβελτ 92 Τ.Κ 3011",
          "district": "Λεμεσός",
          "price": 1.563,
          "mapsUrl": "https://www.google.com/maps?q=34.6665,33.023777777777774",
          "lat": 34.6665,
          "lng": 33.023777777777774
        },
        {
          "brand": "PETROLINA",
          "address": "Λεωφ. Αρχ. Μακαρίου Γ&#39; 18 Τ.Κ 3061",
          "district": "Λεμεσός",
          "price": 1.563,
          "mapsUrl": "https://www.google.com/maps?q=34.67531667,33.0203",
          "lat": 34.67531667,
          "lng": 33.0203
        },
        {
          "brand": "PETROLINA",
          "address": "Μισιαούλη &amp; Καβάζογλου 73 Τ.Κ 3016",
          "district": "Λεμεσός",
          "price": 1.563,
          "mapsUrl": "https://www.google.com/maps?q=34.673561,33.02208",
          "lat": 34.673561,
          "lng": 33.02208
        },
        {
          "brand": "EKO",
          "address": "Λεωφ. Φρ. Ρούσβελτ 29 Τ.Κ 3012",
          "district": "Λεμεσός",
          "price": 1.563,
          "mapsUrl": "https://www.google.com/maps?q=34.670055,33.030746",
          "lat": 34.670055,
          "lng": 33.030746
        },
        {
          "brand": "EKO",
          "address": "Νίκου Ευαγόρου 50 Τ.Κ 3091",
          "district": "Παλώδια",
          "price": 1.563,
          "mapsUrl": "https://www.google.com/maps?q=34.745754,32.998862",
          "lat": 34.745754,
          "lng": 32.998862
        },
        {
          "brand": "STAROIL",
          "address": "Δρόμος Λεμεσού - Πλατρών Τ.Κ -",
          "district": "Λεμεσός",
          "price": 1.563,
          "mapsUrl": "https://www.google.com/maps?q=34.753826,32.962765",
          "lat": 34.753826,
          "lng": 32.962765
        },
        {
          "brand": "STAROIL",
          "address": "Δημοκρατίας 40 Τ.Κ 3012",
          "district": "Λεμεσός",
          "price": 1.563,
          "mapsUrl": "https://www.google.com/maps?q=34.66911111111111,33.02386111111111",
          "lat": 34.66911111111111,
          "lng": 33.02386111111111
        },
        {
          "brand": "SHELL",
          "address": "Λεωφ. Αρτέμιδος 67 Τ.Κ 6027",
          "district": "Λάρνακα",
          "price": 1.565,
          "mapsUrl": "https://www.google.com/maps?q=34.903797222222224,33.630475",
          "lat": 34.903797222222224,
          "lng": 33.630475
        },
        {
          "brand": "EKO",
          "address": "Γεωργίου Καλογεροπούλου 50 Τ.Κ 4007",
          "district": "Μέσα Γειτονιά",
          "price": 1.565,
          "mapsUrl": "https://www.google.com/maps?q=34.708686,33.038429",
          "lat": 34.708686,
          "lng": 33.038429
        },
        {
          "brand": "EKO",
          "address": "Λεωφ. Αρτέμιδος 29 Τ.Κ 6025",
          "district": "Λάρνακα",
          "price": 1.565,
          "mapsUrl": "https://www.google.com/maps?q=34.909094,33.629607",
          "lat": 34.909094,
          "lng": 33.629607
        },
        {
          "brand": "STAROIL",
          "address": "Λεωφ. Δρομολαξιάς 61 Τ.Κ 7550",
          "district": "Κίτι",
          "price": 1.565,
          "mapsUrl": "https://www.google.com/maps?q=34.861666666666665,33.57580555555556",
          "lat": 34.861666666666665,
          "lng": 33.57580555555556
        },
        {
          "brand": "SHELL",
          "address": "Πάφου 37 Τ.Κ 3052",
          "district": "Λεμεσός",
          "price": 1.566,
          "mapsUrl": "https://www.google.com/maps?q=34.674994444444444,33.01171111111111",
          "lat": 34.674994444444444,
          "lng": 33.01171111111111
        },
        {
          "brand": "PETROLINA",
          "address": "Πάφου 33 Τ.Κ 3052",
          "district": "Λεμεσός",
          "price": 1.566,
          "mapsUrl": "https://www.google.com/maps?q=34.674485,33.013897",
          "lat": 34.674485,
          "lng": 33.013897
        },
        {
          "brand": "EKO",
          "address": "Πάφου 11 Τ.Κ 3052",
          "district": "Λεμεσός",
          "price": 1.566,
          "mapsUrl": "https://www.google.com/maps?q=34.673891,33.015811",
          "lat": 34.673891,
          "lng": 33.015811
        },
        {
          "brand": "STAROIL",
          "address": "Λεωφ. Χλώρακας 70 Τ.Κ 8220",
          "district": "Χλώρακα",
          "price": 1.566,
          "mapsUrl": "https://www.google.com/maps?q=34.79908333333333,32.40002777777778",
          "lat": 34.79908333333333,
          "lng": 32.40002777777778
        },
        {
          "brand": "ΑΝΕΞΑΡΤΗΤΟ ΠΡΑΤΗΡΙΟ",
          "address": "Λεωφ. Κωνσταντίνου &amp; Ευριπίδου 1 Τ.Κ 4651",
          "district": "Τραχώνι",
          "price": 1.567,
          "mapsUrl": "https://www.google.com/maps?q=34.653749999999995,32.97397222222222",
          "lat": 34.653749999999995,
          "lng": 32.97397222222222
        },
        {
          "brand": "SHELL",
          "address": "Λεωφ. Κυριάκου Μάτση 54 Τ.Κ 2368",
          "district": "Άγιος Δομέτιος",
          "price": 1.567,
          "mapsUrl": "https://www.google.com/maps?q=35.168772222222216,33.33485",
          "lat": 35.168772222222216,
          "lng": 33.33485
        },
        {
          "brand": "SHELL",
          "address": "Λεωφ. Γρηγόρη Αυξεντίου 16 Τ.Κ 2368",
          "district": "Άγιος Δομέτιος",
          "price": 1.567,
          "mapsUrl": "https://www.google.com/maps?q=35.171394444444445,33.33889166666667",
          "lat": 35.171394444444445,
          "lng": 33.33889166666667
        },
        {
          "brand": "SHELL",
          "address": "Λεωφ. Αμμοχώστου 58 Τ.Κ 5380",
          "district": "Δερύνεια",
          "price": 1.567,
          "mapsUrl": "https://www.google.com/maps?q=35.06801388888889,33.96103055555556",
          "lat": 35.06801388888889,
          "lng": 33.96103055555556
        },
        {
          "brand": "SHELL",
          "address": "Λεωφ. Λεμεσού 5 Τ.Κ 2563",
          "district": "Αλάμπρα",
          "price": 1.567,
          "mapsUrl": "https://www.google.com/maps?q=35.00055,33.397957",
          "lat": 35.00055,
          "lng": 33.397957
        },
        {
          "brand": "PETROLINA",
          "address": "Γεώργιου Χ&quot; Χαραλάμπους 58 Τ.Κ 7700",
          "district": "Λεύκαρα",
          "price": 1.567,
          "mapsUrl": "https://www.google.com/maps?q=34.86518333,33.30683333",
          "lat": 34.86518333,
          "lng": 33.30683333
        },
        {
          "brand": "EKO",
          "address": "Λεωφ. Κυριάκου Μάτση 22 Τ.Κ 2408",
          "district": "Έγκωμη",
          "price": 1.567,
          "mapsUrl": "https://www.google.com/maps?q=35.168024,33.32996",
          "lat": 35.168024,
          "lng": 33.32996
        },
        {
          "brand": "EKO",
          "address": "Λεωφ. Γρηγόρη Αυξεντίου 67, Αγία Βαρβάρα Τ.Κ 2560",
          "district": "Αγία Βαρβάρα",
          "price": 1.567,
          "mapsUrl": "https://www.google.com/maps?q=35.002166,33.380229",
          "lat": 35.002166,
          "lng": 33.380229
        },
        {
          "brand": "PETROLINA",
          "address": "Λεωφ. Γ.Γρίβα Διγενή 17 &amp; Αγίας Λαύρας Τ.Κ 6010",
          "district": "Λάρνακα",
          "price": 1.567,
          "mapsUrl": "https://www.google.com/maps?q=34.91728333,33.62233333",
          "lat": 34.91728333,
          "lng": 33.62233333
        },
        {
          "brand": "PETROLINA",
          "address": "Λεωφ. Αμμοχώστου 74 Τ.Κ 5380",
          "district": "Δερύνεια",
          "price": 1.567,
          "mapsUrl": "https://www.google.com/maps?q=35.07041667,33.9607",
          "lat": 35.07041667,
          "lng": 33.9607
        },
        {
          "brand": "PETROLINA",
          "address": "Λεωφ. Λουκή Ακρίτα 15 Τ.Κ 1100",
          "district": "Λευκωσία",
          "price": 1.568,
          "mapsUrl": "https://www.google.com/maps?q=35.17211667,33.34798333",
          "lat": 35.17211667,
          "lng": 33.34798333
        },
        {
          "brand": "ESSO",
          "address": "Αγίας Φυλάξεως 205 Τ.Κ 3083",
          "district": "Λεμεσός",
          "price": 1.568,
          "mapsUrl": "https://www.google.com/maps?q=34.702301022437,33.0279642974838",
          "lat": 34.702301022437,
          "lng": 33.0279642974838
        },
        {
          "brand": "SHELL",
          "address": "Λεωφ. Αμμοχώστου 83 Τ.Κ 5390",
          "district": "Σωτήρα",
          "price": 1.568,
          "mapsUrl": "https://www.google.com/maps?q=35.037925,33.955026",
          "lat": 35.037925,
          "lng": 33.955026
        },
        {
          "brand": "SHELL",
          "address": "1ης Απριλίου 372 Τ.Κ 5280",
          "district": "Παραλίμνι",
          "price": 1.568,
          "mapsUrl": "https://www.google.com/maps?q=35.010508,33.993417",
          "lat": 35.010508,
          "lng": 33.993417
        },
        {
          "brand": "SHELL",
          "address": "Λεωφ. Σπ. Κυπριανού 135 Τ.Κ 3083",
          "district": "Λεμεσός",
          "price": 1.568,
          "mapsUrl": "https://www.google.com/maps?q=34.69766944444444,33.034527777777775",
          "lat": 34.69766944444444,
          "lng": 33.034527777777775
        },
        {
          "brand": "SHELL",
          "address": "Λεωφ. Λευκωσίας 74, Περιστερώνα Τ.Κ 2731",
          "district": "Περιστερώνα",
          "price": 1.568,
          "mapsUrl": "https://www.google.com/maps?q=35.13482777777778,33.10284444444444",
          "lat": 35.13482777777778,
          "lng": 33.10284444444444
        },
        {
          "brand": "EKO",
          "address": "Κωνσταντινουπόλεως 85 Τ.Κ 7041",
          "district": "Δρόμος Καλαβασού - Ζυγίου",
          "price": 1.568,
          "mapsUrl": "https://www.google.com/maps?q=34.742285,33.326538",
          "lat": 34.742285,
          "lng": 33.326538
        },
        {
          "brand": "ESSO",
          "address": "Πάφου 26 Τ.Κ 4607",
          "district": "Πισσούρι",
          "price": 1.568,
          "mapsUrl": "https://www.google.com/maps?q=34.68225,32.7024953703704",
          "lat": 34.68225,
          "lng": 32.7024953703704
        },
        {
          "brand": "PETROLINA",
          "address": "Γρηγόρη Αυξεντίου 30 Τ.Κ 2368",
          "district": "Άγιος Δομέτιος",
          "price": 1.568,
          "mapsUrl": "https://www.google.com/maps?q=35.17131667,33.3369",
          "lat": 35.17131667,
          "lng": 33.3369
        },
        {
          "brand": "ENI",
          "address": "Λεωφ. Γ.Γρίβα Διγενή 4 Τ.Κ 6010",
          "district": "Λάρνακα",
          "price": 1.568,
          "mapsUrl": "https://www.google.com/maps?q=34.916723,33.624357",
          "lat": 34.916723,
          "lng": 33.624357
        }
      ]
    },
    "heating": {
      "label": "Heating Oil",
      "stations": [
        {
          "brand": "SHELL",
          "address": "Δρόμος Αραδίππου - Αβδελλερού Τ.Κ",
          "district": "Αβδελλερό",
          "price": 1.299,
          "mapsUrl": "https://www.google.com/maps?q=34.975216,33.581264",
          "lat": 34.975216,
          "lng": 33.581264
        },
        {
          "brand": "SHELL",
          "address": "Αρχ. Μακαρίου Γ&#39; 126 Τ.Κ 2827",
          "district": "Γαλάτα",
          "price": 1.305,
          "mapsUrl": "https://www.google.com/maps?q=34.99814166666667,32.898002777777776",
          "lat": 34.99814166666667,
          "lng": 32.898002777777776
        },
        {
          "brand": "EKO",
          "address": "Λεωφ. Σαριγιάννη Τ.Κ 2831",
          "district": "Ευρύχου",
          "price": 1.305,
          "mapsUrl": "https://www.google.com/maps?q=35.070157,32.930054",
          "lat": 35.070157,
          "lng": 32.930054
        },
        {
          "brand": "PETROLINA",
          "address": "Αρχ. Μακαρίου Γ΄ 17 Τ.Κ 2800",
          "district": "Κακοπετριά",
          "price": 1.305,
          "mapsUrl": "https://www.google.com/maps?q=34.991233,32.902827",
          "lat": 34.991233,
          "lng": 32.902827
        },
        {
          "brand": "STAROIL",
          "address": "Λεώφ. Μητροπολίτη Χρύσανθου Σαριγιάννη 110 Τ.Κ 2831",
          "district": "Ευρύχου",
          "price": 1.305,
          "mapsUrl": "https://www.google.com/maps?q=35.05938888888888,32.91291666666667",
          "lat": 35.05938888888888,
          "lng": 32.91291666666667
        },
        {
          "brand": "ESSO",
          "address": "Γρηγόρη Αυξεντίου 24, Κοκκινοτριμιθιά Τ.Κ 2660",
          "district": "Κοκκινοτριμιθιά",
          "price": 1.306,
          "mapsUrl": "https://www.google.com/maps?q=35.1481674279843,33.2034919828034",
          "lat": 35.1481674279843,
          "lng": 33.2034919828034
        },
        {
          "brand": "SHELL",
          "address": "Αρχ. Μακαρίου Γ&#39; 11 Τ.Κ 2800",
          "district": "Κακοπετριά",
          "price": 1.309,
          "mapsUrl": "https://www.google.com/maps?q=34.992275,32.90260277777778",
          "lat": 34.992275,
          "lng": 32.90260277777778
        },
        {
          "brand": "PETROLINA",
          "address": "Γιάννου Κρανιδιώτη 247 Τ.Κ 2233",
          "district": "Λατσιά",
          "price": 1.318,
          "mapsUrl": "https://www.google.com/maps?q=35.078424,33.381658",
          "lat": 35.078424,
          "lng": 33.381658
        },
        {
          "brand": "PETROLINA",
          "address": "Γρηγόρη Αυξεντίου 76, Κοκκινοτριμιθιά Τ.Κ 2660",
          "district": "Κοκκινοτριμιθιά",
          "price": 1.319,
          "mapsUrl": "https://www.google.com/maps?q=35.148666,33.212235",
          "lat": 35.148666,
          "lng": 33.212235
        },
        {
          "brand": "ENI",
          "address": "Λεωφ. Λάρνακος 125 Τ.Κ 1048",
          "district": "Παλλουριώτισσα",
          "price": 1.319,
          "mapsUrl": "https://www.google.com/maps?q=35.1658,33.3822",
          "lat": 35.1658,
          "lng": 33.3822
        },
        {
          "brand": "ESSO",
          "address": "Λεωφ. Γρηγόρη Αυξεντίου 29, Πάνω Δευτερά Τ.Κ 2460",
          "district": "Δευτερά",
          "price": 1.319,
          "mapsUrl": "https://www.google.com/maps?q=35.081014,33.273498",
          "lat": 35.081014,
          "lng": 33.273498
        },
        {
          "brand": "ENI",
          "address": "Λεωφ. Αμμοχώστου (Δρόμος Λάρνακας-Δεκέλειας) Τ.Κ 6019",
          "district": "Δρόμος Λάρνακας - Δεκέλειας",
          "price": 1.319,
          "mapsUrl": "https://www.google.com/maps?q=34.95398333,33.65163333",
          "lat": 34.95398333,
          "lng": 33.65163333
        },
        {
          "brand": "PETROLINA",
          "address": "Φρ. Ρούσβελτ 245 Τ.Κ 3046",
          "district": "Λεμεσός",
          "price": 1.319,
          "mapsUrl": "https://www.google.com/maps?q=34.65851667,33.0028",
          "lat": 34.65851667,
          "lng": 33.0028
        },
        {
          "brand": "PETROLINA",
          "address": "Λεωφ. Σπ. Κυπριανού 66-68 Τ.Κ 6057",
          "district": "Λάρνακα",
          "price": 1.319,
          "mapsUrl": "https://www.google.com/maps?q=34.93068333,33.62813333",
          "lat": 34.93068333,
          "lng": 33.62813333
        },
        {
          "brand": "PETROLINA",
          "address": "Λεωφ. Στροβόλου 279 Τ.Κ 2048",
          "district": "Στρόβολος",
          "price": 1.319,
          "mapsUrl": "https://www.google.com/maps?q=35.128309,33.325049",
          "lat": 35.128309,
          "lng": 33.325049
        },
        {
          "brand": "PETROLINA",
          "address": "Λεώφ. Αγίου Γεωργίου Τ.Κ 8560",
          "district": "Πέγεια",
          "price": 1.319,
          "mapsUrl": "https://www.google.com/maps?q=34.87136,32.36097",
          "lat": 34.87136,
          "lng": 32.36097
        },
        {
          "brand": "PETROLINA",
          "address": "Λεωφ. Πρωταρά - Κάβο Γκρέκο 227 Τ.Κ 5295",
          "district": "Πρωταράς",
          "price": 1.319,
          "mapsUrl": "https://www.google.com/maps?q=35.027565,34.031999",
          "lat": 35.027565,
          "lng": 34.031999
        },
        {
          "brand": "PETROLINA",
          "address": "Λεωφ. Αρχ. Μακαρίου Γ΄ 79, Αστρομερίτης Τ.Κ 2722",
          "district": "Αστρομερίτης",
          "price": 1.319,
          "mapsUrl": "https://www.google.com/maps?q=35.138114,33.053639",
          "lat": 35.138114,
          "lng": 33.053639
        },
        {
          "brand": "PETROLINA",
          "address": "Κύριος Δρόμος Πεδουλά – Προδρόμου Τ.Κ 2850",
          "district": "Πεδουλάς",
          "price": 1.319,
          "mapsUrl": "https://www.google.com/maps?q=34.97021,32.82599",
          "lat": 34.97021,
          "lng": 32.82599
        },
        {
          "brand": "ENI",
          "address": "Λεωφ. Κυριάκου Μάτση Τ.Κ 8300",
          "district": "Κονιά",
          "price": 1.319,
          "mapsUrl": "https://www.google.com/maps?q=34.7740602,32.4592027",
          "lat": 34.7740602,
          "lng": 32.4592027
        },
        {
          "brand": "PETROLINA",
          "address": "Λεωφ. Αρχ. Μακαρίου Γ&#39; 18 Τ.Κ 3061",
          "district": "Λεμεσός",
          "price": 1.319,
          "mapsUrl": "https://www.google.com/maps?q=34.67531667,33.0203",
          "lat": 34.67531667,
          "lng": 33.0203
        },
        {
          "brand": "PETROLINA",
          "address": "Παλαιός Δρόμος Λεμεσού-Πάφου Τ.Κ 4607",
          "district": "Πισσούρι",
          "price": 1.319,
          "mapsUrl": "https://www.google.com/maps?q=34.675178,32.697404",
          "lat": 34.675178,
          "lng": 32.697404
        },
        {
          "brand": "PETROLINA",
          "address": "Λεωφ. Αμμοχώστου 67 Τ.Κ 1048",
          "district": "Παλλουριώτισσα",
          "price": 1.319,
          "mapsUrl": "https://www.google.com/maps?q=35.168195,33.39786",
          "lat": 35.168195,
          "lng": 33.39786
        },
        {
          "brand": "PETROLINA",
          "address": "Μισιαούλη &amp; Καβάζογλου 73 Τ.Κ 3016",
          "district": "Λεμεσός",
          "price": 1.319,
          "mapsUrl": "https://www.google.com/maps?q=34.673561,33.02208",
          "lat": 34.673561,
          "lng": 33.02208
        },
        {
          "brand": "PETROLINA",
          "address": "Φώτη Πίττα 85 Τ.Κ 5350",
          "district": "Φρέναρος",
          "price": 1.319,
          "mapsUrl": "https://www.google.com/maps?q=35.02766666666667,33.911249999999995",
          "lat": 35.02766666666667,
          "lng": 33.911249999999995
        },