{
  "updatedAt": "2026-07-01T15:21:19.558Z",
  "fuels": {
    "95": {
      "label": "Unleaded 95",
      "stations": [
        {
          "brand": "PETROLINA",
          "address": "Γιάννου Κρανιδιώτη 247 Τ.Κ 2233",
          "district": "Λατσιά",
          "price": 1.428,
          "mapsUrl": "https://www.google.com/maps?q=35.078424,33.381658",
          "lat": 35.078424,
          "lng": 33.381658
        },
        {
          "brand": "SHELL",
          "address": "Tσερίου 36 Νήσου (Χαλεπιανές) Τ.Κ 2571",
          "district": "Πέρα Χωριό Νήσου",
          "price": 1.428,
          "mapsUrl": "https://www.google.com/maps/search/T%CF%83%CE%B5%CF%81%CE%AF%CE%BF%CF%85%2036%20%CE%9D%CE%AE%CF%83%CE%BF%CF%85%20(%CE%A7%CE%B1%CE%BB%CE%B5%CF%80%CE%B9%CE%B1%CE%BD%CE%AD%CF%82)%20%CE%A4.%CE%9A%202571",
          "lat": null,
          "lng": null
        },
        {
          "brand": "SHELL",
          "address": "Λεωφ. Αμμοχώστου 57 Τ.Κ 1016",
          "district": "Παλλουριώτισσα",
          "price": 1.428,
          "mapsUrl": "https://www.google.com/maps?q=35.170154,33.397329",
          "lat": 35.170154,
          "lng": 33.397329
        },
        {
          "brand": "ENI",
          "address": "Λεωφ. Λάρνακος 125 Τ.Κ 1048",
          "district": "Παλλουριώτισσα",
          "price": 1.428,
          "mapsUrl": "https://www.google.com/maps?q=35.1658,33.3822",
          "lat": 35.1658,
          "lng": 33.3822
        },
        {
          "brand": "FILL N GO",
          "address": "Λεωφ. Λάρνακος 184 Τ.Κ 2103",
          "district": "Αγλαντζιά",
          "price": 1.428,
          "mapsUrl": "https://www.google.com/maps/search/%CE%9B%CE%B5%CF%89%CF%86.%20%CE%9B%CE%AC%CF%81%CE%BD%CE%B1%CE%BA%CE%BF%CF%82%20184%20%CE%A4.%CE%9A%202103",
          "lat": null,
          "lng": null
        },
        {
          "brand": "FILL N GO",
          "address": "Σταδίου 9 (Χαλεπιανές) Τ.Κ 2571",
          "district": "Πέρα Χωριό Νήσου",
          "price": 1.428,
          "mapsUrl": "https://www.google.com/maps?q=35.0533941,33.3820345",
          "lat": 35.0533941,
          "lng": 33.3820345
        },
        {
          "brand": "PETROLINA",
          "address": "Λεωφ. Καντάρας 78 Τ.Κ 1027",
          "district": "Καϊμακλί",
          "price": 1.428,
          "mapsUrl": "https://www.google.com/maps?q=35.185485,33.390970",
          "lat": 35.185485,
          "lng": 33.39097
        },
        {
          "brand": "PETROLINA",
          "address": "Λεωφ. Αμμοχώστου 67 Τ.Κ 1048",
          "district": "Παλλουριώτισσα",
          "price": 1.428,
          "mapsUrl": "https://www.google.com/maps?q=35.168195,33.397860",
          "lat": 35.168195,
          "lng": 33.39786
        },
        {
          "brand": "EKO",
          "address": "Λεωφ. Αγλαντζιάς 35 Τ.Κ 2108",
          "district": "Αγλαντζιά",
          "price": 1.428,
          "mapsUrl": "https://www.google.com/maps?q=35.156854,33.389026",
          "lat": 35.156854,
          "lng": 33.389026
        },
        {
          "brand": "EKO",
          "address": "Λεωφόρος Λεμεσού 341, Πέρα Χωριό (Βιομηχανική Περιοχή Νήσου) Τ.Κ 2571",
          "district": "Πέρα Χωριό Νήσου",
          "price": 1.428,
          "mapsUrl": "https://www.google.com/maps?q=35.052276,33.387661",
          "lat": 35.052276,
          "lng": 33.387661
        },
        {
          "brand": "EKO",
          "address": "Λεωφ. Διγενή Ακρίτα 7-9 Τ.Κ 1055",
          "district": "Λευκωσία",
          "price": 1.428,
          "mapsUrl": "https://www.google.com/maps?q=35.170191,33.374402",
          "lat": 35.170191,
          "lng": 33.374402
        },
        {
          "brand": "EKO",
          "address": "Λεωφ. Λάρνακος 103 Τ.Κ 2103",
          "district": "Αγλαντζιά",
          "price": 1.428,
          "mapsUrl": "https://www.google.com/maps?q=35.155545,33.398449",
          "lat": 35.155545,
          "lng": 33.398449
        },
        {
          "brand": "PETROLINA",
          "address": "Λεωφ. Λάρνακος 5 Τ.Κ 1035",
          "district": "Λευκωσία",
          "price": 1.428,
          "mapsUrl": "https://www.google.com/maps?q=35.1727,33.3726",
          "lat": 35.1727,
          "lng": 33.3726
        },
        {
          "brand": "PETROLINA",
          "address": "Λεωφ. Ελλάδος 65 Τ.Κ 7101",
          "district": "Αραδίππου",
          "price": 1.429,
          "mapsUrl": "https://www.google.com/maps/search/%CE%9B%CE%B5%CF%89%CF%86.%20%CE%95%CE%BB%CE%BB%CE%AC%CE%B4%CE%BF%CF%82%2065%20%CE%A4.%CE%9A%207101",
          "lat": null,
          "lng": null
        },
        {
          "brand": "SHELL",
          "address": "Λεωφ. Ελλάδος 76 Τ.Κ 7101",
          "district": "Αραδίππου",
          "price": 1.429,
          "mapsUrl": "https://www.google.com/maps?q=34.927460394756885,33.58150402848419",
          "lat": 34.927460394756885,
          "lng": 33.58150402848419
        },
        {
          "brand": "EKO",
          "address": "Κυριάκου Μάτση 100 Τ.Κ 7102",
          "district": "Αραδίππου",
          "price": 1.438,
          "mapsUrl": "https://www.google.com/maps?q=34.939014,33.601698",
          "lat": 34.939014,
          "lng": 33.601698
        },
        {
          "brand": "PETROLINA",
          "address": "Λεωφ. Τσερίου 20, Νήσου (Χαλεπιανές) Τ.Κ 2571",
          "district": "Πέρα Χωριό Νήσου",
          "price": 1.439,
          "mapsUrl": "https://www.google.com/maps?q=35.055571,33.374225",
          "lat": 35.055571,
          "lng": 33.374225
        },
        {
          "brand": "SHELL",
          "address": "Δρόμος Καλού Χωριού Λάρνακας Τ.Κ 7643",
          "district": "Καλό Χωριό Λάρνακας",
          "price": 1.439,
          "mapsUrl": "https://www.google.com/maps?q=34.91073084,33.562161",
          "lat": 34.91073084,
          "lng": 33.562161
        },
        {
          "brand": "PETROLINA",
          "address": "Λεωφ. Αμμοχώστου Τ.Κ 7643",
          "district": "Καλό Χωριό Λάρνακας",
          "price": 1.439,
          "mapsUrl": "https://www.google.com/maps?q=34.92598333,33.54103333",
          "lat": 34.92598333,
          "lng": 33.54103333
        },
        {
          "brand": "ESSO",
          "address": "Λεωφ. Τζων Κέννετυ 78 Τ.Κ 1046",
          "district": "Παλλουριώτισσα",
          "price": 1.447,
          "mapsUrl": "https://www.google.com/maps?q=35.172382618025,33.3880451055572",
          "lat": 35.172382618025,
          "lng": 33.3880451055572
        },
        {
          "brand": "PETROLINA",
          "address": "Λεωφ. Σπ. Κυπριανού 22 Τ.Κ 2237",
          "district": "Λατσιά",
          "price": 1.449,
          "mapsUrl": "https://www.google.com/maps?q=35.1056,33.3644",
          "lat": 35.1056,
          "lng": 33.3644
        },
        {
          "brand": "PETROLINA",
          "address": "Λεωφ. Γιώργου Χριστοδουλίδη (Νέο ΓΣΖ) Τ.Κ 6043",
          "district": "Λάρνακα",
          "price": 1.449,
          "mapsUrl": "https://www.google.com/maps?q=34.92536667,33.60203333",
          "lat": 34.92536667,
          "lng": 33.60203333
        },
        {
          "brand": "PETROLINA",
          "address": "Λεωφ. Λεμεσού, Νήσου Τ.Κ 2571",
          "district": "Πέρα Χωριό Νήσου",
          "price": 1.449,
          "mapsUrl": "https://www.google.com/maps?q=35.042400,33.387107",
          "lat": 35.0424,
          "lng": 33.387107
        },
        {
          "brand": "SHELL",
          "address": "Δρόμος Αραδίππου - Αβδελλερού Τ.Κ",
          "district": "Αβδελλερό",
          "price": 1.449,
          "mapsUrl": "https://www.google.com/maps?q=34.975216,33.581264",
          "lat": 34.975216,
          "lng": 33.581264
        },
        {
          "brand": "SHELL",
          "address": "Λεωφ. Αρχ. Μακαρίου Γ΄ 276 Τ.Κ 2311",
          "district": "Λακατάμεια",
          "price": 1.455,
          "mapsUrl": "https://www.google.com/maps/search/%CE%9B%CE%B5%CF%89%CF%86.%20%CE%91%CF%81%CF%87.%20%CE%9C%CE%B1%CE%BA%CE%B1%CF%81%CE%AF%CE%BF%CF%85%20%CE%93%CE%84%20276%20%CE%A4.%CE%9A%202311",
          "lat": null,
          "lng": null
        },
        {
          "brand": "SHELL",
          "address": "Λεωφ. Τσερίου 228 Τ.Κ 2044",
          "district": "Στρόβολος",
          "price": 1.455,
          "mapsUrl": "https://www.google.com/maps/search/%CE%9B%CE%B5%CF%89%CF%86.%20%CE%A4%CF%83%CE%B5%CF%81%CE%AF%CE%BF%CF%85%20228%20%CE%A4.%CE%9A%202044",
          "lat": null,
          "lng": null
        },
        {
          "brand": "SHELL",
          "address": "Λεωφ. Αρχ. Μακαρίου Γ΄44, Κλήρου Τ.Κ 2600",
          "district": "Κλήρου",
          "price": 1.455,
          "mapsUrl": "https://www.google.com/maps/search/%CE%9B%CE%B5%CF%89%CF%86.%20%CE%91%CF%81%CF%87.%20%CE%9C%CE%B1%CE%BA%CE%B1%CF%81%CE%AF%CE%BF%CF%85%20%CE%93%CE%8444%2C%20%CE%9A%CE%BB%CE%AE%CF%81%CE%BF%CF%85%20%CE%A4.%CE%9A%202600",
          "lat": null,
          "lng": null
        },
        {
          "brand": "ESSO",
          "address": "Λεωφ. Γρηγόρη Αυξεντίου 29, Πάνω Δευτερά Τ.Κ 2460",
          "district": "Δευτερά",
          "price": 1.455,
          "mapsUrl": "https://www.google.com/maps?q=35.081014,33.273498",
          "lat": 35.081014,
          "lng": 33.273498
        },
        {
          "brand": "EKO",
          "address": "Λεωφόρος Στροβόλου 98 Τ.Κ 2325",
          "district": "Λακατάμεια",
          "price": 1.455,
          "mapsUrl": "https://www.google.com/maps?q=35.106167,33.330644",
          "lat": 35.106167,
          "lng": 33.330644
        },
        {
          "brand": "EKO",
          "address": "Γ.Γρίβα Διγενή 12 Τ.Κ 2614",
          "district": "Αρεδιού",
          "price": 1.455,
          "mapsUrl": "https://www.google.com/maps?q=35.058393,33.206986",
          "lat": 35.058393,
          "lng": 33.206986
        },
        {
          "brand": "STAROIL",
          "address": "Μεγάλου Αλεξάνδρου 46, Παλιομέτοχο Τ.Κ 2682",
          "district": "Παλιομέτοχο",
          "price": 1.455,
          "mapsUrl": "https://www.google.com/maps/search/%CE%9C%CE%B5%CE%B3%CE%AC%CE%BB%CE%BF%CF%85%20%CE%91%CE%BB%CE%B5%CE%BE%CE%AC%CE%BD%CE%B4%CF%81%CE%BF%CF%85%2046%2C%20%CE%A0%CE%B1%CE%BB%CE%B9%CE%BF%CE%BC%CE%AD%CF%84%CE%BF%CF%87%CE%BF%20%CE%A4.%CE%9A%202682",
          "lat": null,
          "lng": null
        },
        {
          "brand": "STAROIL",
          "address": "Ακανθούς 4, Πάνω Δευτερά Τ.Κ 2460",
          "district": "Δευτερά",
          "price": 1.455,
          "mapsUrl": "https://www.google.com/maps?q=35.090188221784366,33.26715483191825",
          "lat": 35.090188221784366,
          "lng": 33.26715483191825
        },
        {
          "brand": "STAROIL",
          "address": "Λεωφ. Αρχ. Μακαρίου Γ΄ 54 Τ.Κ 2324",
          "district": "Λακατάμεια",
          "price": 1.455,
          "mapsUrl": "https://www.google.com/maps/search/%CE%9B%CE%B5%CF%89%CF%86.%20%CE%91%CF%81%CF%87.%20%CE%9C%CE%B1%CE%BA%CE%B1%CF%81%CE%AF%CE%BF%CF%85%20%CE%93%CE%84%2054%20%CE%A4.%CE%9A%202324",
          "lat": null,
          "lng": null
        },
        {
          "brand": "STAROIL",
          "address": "Λεωφ. Αγίου Γεωργίου 107 Τ.Κ 2304",
          "district": "Λακατάμεια",
          "price": 1.455,
          "mapsUrl": "https://www.google.com/maps/search/%CE%9B%CE%B5%CF%89%CF%86.%20%CE%91%CE%B3%CE%AF%CE%BF%CF%85%20%CE%93%CE%B5%CF%89%CF%81%CE%B3%CE%AF%CE%BF%CF%85%20107%20%CE%A4.%CE%9A%202304",
          "lat": null,
          "lng": null
        },
        {
          "brand": "STAROIL",
          "address": "Κώστα Μισιαούλη 168 Τ.Κ 2480",
          "district": "Τσέρι",
          "price": 1.455,
          "mapsUrl": "https://www.google.com/maps/search/%CE%9A%CF%8E%CF%83%CF%84%CE%B1%20%CE%9C%CE%B9%CF%83%CE%B9%CE%B1%CE%BF%CF%8D%CE%BB%CE%B7%20168%20%CE%A4.%CE%9A%202480",
          "lat": null,
          "lng": null
        },
        {
          "brand": "STAROIL",
          "address": "Γρηγόρη Αυξεντίου 29, Πέρα Ορεινής Τ.Κ 2650",
          "district": "Πέρα Ορεινής",
          "price": 1.455,
          "mapsUrl": "https://www.google.com/maps/search/%CE%93%CF%81%CE%B7%CE%B3%CF%8C%CF%81%CE%B7%20%CE%91%CF%85%CE%BE%CE%B5%CE%BD%CF%84%CE%AF%CE%BF%CF%85%2029%2C%20%CE%A0%CE%AD%CF%81%CE%B1%20%CE%9F%CF%81%CE%B5%CE%B9%CE%BD%CE%AE%CF%82%20%CE%A4.%CE%9A%202650",
          "lat": null,
          "lng": null
        },
        {
          "brand": "STAROIL",
          "address": "Πεύκου 71 Τ.Κ 2326",
          "district": "Λακατάμεια",
          "price": 1.455,
          "mapsUrl": "https://www.google.com/maps/search/%CE%A0%CE%B5%CF%8D%CE%BA%CE%BF%CF%85%2071%20%CE%A4.%CE%9A%202326",
          "lat": null,
          "lng": null
        },
        {
          "brand": "PETROLINA",
          "address": "Λεωφ. Κυριάκου Μάτση 28, Αγ.Ομολογητές Τ.Κ 1082",
          "district": "Λευκωσία",
          "price": 1.455,
          "mapsUrl": "https://www.google.com/maps?q=35.1591,33.35478333",
          "lat": 35.1591,
          "lng": 33.35478333
        },
        {
          "brand": "SHELL",
          "address": "Αρχ. Μακαρίου Γ&#39; 126 Τ.Κ 2827",
          "district": "Γαλάτα",
          "price": 1.458,
          "mapsUrl": "https://www.google.com/maps/search/%CE%91%CF%81%CF%87.%20%CE%9C%CE%B1%CE%BA%CE%B1%CF%81%CE%AF%CE%BF%CF%85%20%CE%93%26%2339%3B%20126%20%CE%A4.%CE%9A%202827",
          "lat": null,
          "lng": null
        },
        {
          "brand": "SHELL",
          "address": "Λεωφ. Λεμεσού 5 Τ.Κ 2563",
          "district": "Αλάμπρα",
          "price": 1.459,
          "mapsUrl": "https://www.google.com/maps?q=35.000550,33.397957",
          "lat": 35.00055,
          "lng": 33.397957
        },
        {
          "brand": "EKO",
          "address": "Λεωφ. Σαριγιάννη Τ.Κ 2831",
          "district": "Ευρύχου",
          "price": 1.459,
          "mapsUrl": "https://www.google.com/maps?q=35.070157,32.930054",
          "lat": 35.070157,
          "lng": 32.930054
        },
        {
          "brand": "EKO",
          "address": "Λεωφ. Γρηγόρη Αυξεντίου 67, Αγία Βαρβάρα Τ.Κ 2560",
          "district": "Αγία Βαρβάρα",
          "price": 1.459,
          "mapsUrl": "https://www.google.com/maps?q=35.002166,33.380229",
          "lat": 35.002166,
          "lng": 33.380229
        },
        {
          "brand": "EKO",
          "address": "28ης Οκτωβρίου 12, Κόρνος Τ.Κ 7640",
          "district": "Κόρνος",
          "price": 1.459,
          "mapsUrl": "https://www.google.com/maps?q=34.927328,33.413823",
          "lat": 34.927328,
          "lng": 33.413823
        },
        {
          "brand": "STAROIL",
          "address": "Λεώφ. Μητροπολίτη Χρύσανθου Σαριγιάννη 110 Τ.Κ 2831",
          "district": "Ευρύχου",
          "price": 1.459,
          "mapsUrl": "https://www.google.com/maps/search/%CE%9B%CE%B5%CF%8E%CF%86.%20%CE%9C%CE%B7%CF%84%CF%81%CE%BF%CF%80%CE%BF%CE%BB%CE%AF%CF%84%CE%B7%20%CE%A7%CF%81%CF%8D%CF%83%CE%B1%CE%BD%CE%B8%CE%BF%CF%85%20%CE%A3%CE%B1%CF%81%CE%B9%CE%B3%CE%B9%CE%AC%CE%BD%CE%BD%CE%B7%20110%20%CE%A4.%CE%9A%202831",
          "lat": null,
          "lng": null
        },
        {
          "brand": "PETROLINA",
          "address": "Λεωφ. Αρχ. Μακαρίου Γ΄2, Πέρα Χωριό Τ.Κ 2572",
          "district": "Πέρα Χωριό Νήσου",
          "price": 1.46,
          "mapsUrl": "https://www.google.com/maps?q=35.014335,33.394406",
          "lat": 35.014335,
          "lng": 33.394406
        },
        {
          "brand": "EKO",
          "address": "Λεωφ. Λεμεσού 21, Πέρα Χωριό Τ.Κ 2572",
          "district": "Πέρα Χωριό Νήσου",
          "price": 1.46,
          "mapsUrl": "https://www.google.com/maps?q=35.008912,33.39358",
          "lat": 35.008912,
          "lng": 33.39358
        },
        {
          "brand": "EKO",
          "address": "Αρχ. Μακαρίου Γ΄ 42, Πέρα Χωριό Τ.Κ 2572",
          "district": "Πέρα Χωριό Νήσου",
          "price": 1.46,
          "mapsUrl": "https://www.google.com/maps?q=35.015708,33.401891",
          "lat": 35.015708,
          "lng": 33.401891
        },
        {
          "brand": "EKO",
          "address": "Γεωργίου Καλογεροπούλου 50 Τ.Κ 4007",
          "district": "Μέσα Γειτονιά",
          "price": 1.465,
          "mapsUrl": "https://www.google.com/maps?q=34.708686,33.038429",
          "lat": 34.708686,
          "lng": 33.038429
        },
        {
          "brand": "STAROIL",
          "address": "Λεωφ. Χλώρακας 70 Τ.Κ 8220",
          "district": "Χλώρακα",
          "price": 1.466,
          "mapsUrl": "https://www.google.com/maps/search/%CE%9B%CE%B5%CF%89%CF%86.%20%CE%A7%CE%BB%CF%8E%CF%81%CE%B1%CE%BA%CE%B1%CF%82%2070%20%CE%A4.%CE%9A%208220",
          "lat": null,
          "lng": null
        },
        {
          "brand": "SHELL",
          "address": "1ης Απριλίου 372 Τ.Κ 5280",
          "district": "Παραλίμνι",
          "price": 1.468,
          "mapsUrl": "https://www.google.com/maps?q=35.010508,33.993417",
          "lat": 35.010508,
          "lng": 33.993417
        },
        {
          "brand": "SHELL",
          "address": "Λεωφ. Αμμοχώστου 83 Τ.Κ 5390",
          "district": "Σωτήρα",
          "price": 1.468,
          "mapsUrl": "https://www.google.com/maps?q=35.037925,33.955026",
          "lat": 35.037925,
          "lng": 33.955026
        },
        {
          "brand": "SHELL",
          "address": "Ευαγόρα Παλληκαρίδη 10 Τ.Κ 8010",
          "district": "Πάφος",
          "price": 1.468,
          "mapsUrl": "https://www.google.com/maps/search/%CE%95%CF%85%CE%B1%CE%B3%CF%8C%CF%81%CE%B1%20%CE%A0%CE%B1%CE%BB%CE%BB%CE%B7%CE%BA%CE%B1%CF%81%CE%AF%CE%B4%CE%B7%2010%20%CE%A4.%CE%9A%208010",
          "lat": null,
          "lng": null
        },
        {
          "brand": "SHELL",
          "address": "Λεωφ. Αρτέμιδος 67 Τ.Κ 6027",
          "district": "Λάρνακα",
          "price": 1.468,
          "mapsUrl": "https://www.google.com/maps/search/%CE%9B%CE%B5%CF%89%CF%86.%20%CE%91%CF%81%CF%84%CE%AD%CE%BC%CE%B9%CE%B4%CE%BF%CF%82%2067%20%CE%A4.%CE%9A%206027",
          "lat": null,
          "lng": null
        },
        {
          "brand": "SHELL",
          "address": "Λεωφ. Αρχ. Μακαρίου Γ΄ 57 Τ.Κ 6017",
          "district": "Λάρνακα",
          "price": 1.468,
          "mapsUrl": "https://www.google.com/maps/search/%CE%9B%CE%B5%CF%89%CF%86.%20%CE%91%CF%81%CF%87.%20%CE%9C%CE%B1%CE%BA%CE%B1%CF%81%CE%AF%CE%BF%CF%85%20%CE%93%CE%84%2057%20%CE%A4.%CE%9A%206017",
          "lat": null,
          "lng": null
        },
        {
          "brand": "SHELL",
          "address": "Λεωφ. Αμμοχώστου 58 Τ.Κ 5380",
          "district": "Δερύνεια",
          "price": 1.468,
          "mapsUrl": "https://www.google.com/maps/search/%CE%9B%CE%B5%CF%89%CF%86.%20%CE%91%CE%BC%CE%BC%CE%BF%CF%87%CF%8E%CF%83%CF%84%CE%BF%CF%85%2058%20%CE%A4.%CE%9A%205380",
          "lat": null,
          "lng": null
        },
        {
          "brand": "SHELL",
          "address": "Αρχ. Μακαρίου Γ&#39; 11 Τ.Κ 2800",
          "district": "Κακοπετριά",
          "price": 1.468,
          "mapsUrl": "https://www.google.com/maps/search/%CE%91%CF%81%CF%87.%20%CE%9C%CE%B1%CE%BA%CE%B1%CF%81%CE%AF%CE%BF%CF%85%20%CE%93%26%2339%3B%2011%20%CE%A4.%CE%9A%202800",
          "lat": null,
          "lng": null
        },
        {
          "brand": "EKO",
          "address": "Λεωφ. Αμμοχώστου Τ.Κ 7643",
          "district": "Καλό Χωριό Λάρνακας",
          "price": 1.468,
          "mapsUrl": "https://www.google.com/maps?q=34.927671,33.536158",
          "lat": 34.927671,
          "lng": 33.536158
        },
        {
          "brand": "EKO",
          "address": "Ελευθερίας 27 Τ.Κ 7102",
          "district": "Αραδίππου",
          "price": 1.468,
          "mapsUrl": "https://www.google.com/maps?q=34.935446,33.59272",
          "lat": 34.935446,
          "lng": 33.59272
        },
        {
          "brand": "ESSO",
          "address": "Λεωφ. Νίκης 37 Τ.Κ 1087",
          "district": "Ακρόπολη",
          "price": 1.469,
          "mapsUrl": "https://www.google.com/maps?q=35.1565679511699,33.3580602362457",
          "lat": 35.1565679511699,
          "lng": 33.3580602362457
        },
        {
          "brand": "SHELL",
          "address": "Λεωφ. Σπ. Κυπριανού 135 Τ.Κ 3083",
          "district": "Λεμεσός",
          "price": 1.469,
          "mapsUrl": "https://www.google.com/maps/search/%CE%9B%CE%B5%CF%89%CF%86.%20%CE%A3%CF%80.%20%CE%9A%CF%85%CF%80%CF%81%CE%B9%CE%B1%CE%BD%CE%BF%CF%8D%20135%20%CE%A4.%CE%9A%203083",
          "lat": null,
          "lng": null
        },
        {
          "brand": "SHELL",
          "address": "28ης Οκτωβρίου 305 Τ.Κ 3105",
          "district": "Λεμεσός",
          "price": 1.469,
          "mapsUrl": "https://www.google.com/maps/search/28%CE%B7%CF%82%20%CE%9F%CE%BA%CF%84%CF%89%CE%B2%CF%81%CE%AF%CE%BF%CF%85%20305%20%CE%A4.%CE%9A%203105",
          "lat": null,
          "lng": null
        },
        {
          "brand": "SHELL",
          "address": "Φρ. Ρούσβελτ 92 Τ.Κ 3011",
          "district": "Λεμεσός",
          "price": 1.469,
          "mapsUrl": "https://www.google.com/maps/search/%CE%A6%CF%81.%20%CE%A1%CE%BF%CF%8D%CF%83%CE%B2%CE%B5%CE%BB%CF%84%2092%20%CE%A4.%CE%9A%203011",
          "lat": null,
          "lng": null
        },
        {
          "brand": "ENI",
          "address": "Λεωφ. Αμμοχώστου (Δρόμος Λάρνακας-Δεκέλειας) Τ.Κ 6019",
          "district": "Δρόμος Λάρνακας - Δεκέλειας",
          "price": 1.469,
          "mapsUrl": "https://www.google.com/maps?q=34.95398333,33.65163333",
          "lat": 34.95398333,
          "lng": 33.65163333
        },
        {
          "brand": "PETROLINA",
          "address": "Φρ. Ρούσβελτ 245 Τ.Κ 3046",
          "district": "Λεμεσός",
          "price": 1.469,
          "mapsUrl": "https://www.google.com/maps?q=34.65851667,33.0028",
          "lat": 34.65851667,
          "lng": 33.0028
        },
        {
          "brand": "PETROLINA",
          "address": "Λεωφ. Τάσσου Παπαδόπουλου 7 (δίπλα από πρώην Διυλιστήριο) Τ.Κ 6059",
          "district": "Λειβάδια",
          "price": 1.469,
          "mapsUrl": "https://www.google.com/maps?q=34.941497,33.642206",
          "lat": 34.941497,
          "lng": 33.642206
        },
        {
          "brand": "PETROLINA",
          "address": "Λεωφ. Σπ. Κυπριανού 66-68 Τ.Κ 6057",
          "district": "Λάρνακα",
          "price": 1.469,
          "mapsUrl": "https://www.google.com/maps?q=34.93068333,33.62813333",
          "lat": 34.93068333,
          "lng": 33.62813333
        },
        {
          "brand": "PETROLINA",
          "address": "Λεώφ. Αγίου Γεωργίου Τ.Κ 8560",
          "district": "Πέγεια",
          "price": 1.469,
          "mapsUrl": "https://www.google.com/maps?q=34.87136,32.36097",
          "lat": 34.87136,
          "lng": 32.36097
        },
        {
          "brand": "PETROLINA",
          "address": "Λεωφ. Στροβόλου 279 Τ.Κ 2048",
          "district": "Στρόβολος",
          "price": 1.469,
          "mapsUrl": "https://www.google.com/maps?q=35.128309,33.325049",
          "lat": 35.128309,
          "lng": 33.325049
        },
        {
          "brand": "PETROLINA",
          "address": "Κύριος Δρόμος Πεδουλά – Προδρόμου Τ.Κ 2850",
          "district": "Πεδουλάς",
          "price": 1.469,
          "mapsUrl": "https://www.google.com/maps?q=34.97021,32.82599",
          "lat": 34.97021,
          "lng": 32.82599
        },
        {
          "brand": "PETROLINA",
          "address": "Λεωφ. Πρωταρά - Κάβο Γκρέκο 227 Τ.Κ 5295",
          "district": "Πρωταράς",
          "price": 1.469,
          "mapsUrl": "https://www.google.com/maps?q=35.027565,34.031999",
          "lat": 35.027565,
          "lng": 34.031999
        },
        {
          "brand": "PETROLINA",
          "address": "Λεωφ. Αρχ. Μακαρίου Γ΄ 79, Αστρομερίτης Τ.Κ 2722",
          "district": "Αστρομερίτης",
          "price": 1.469,
          "mapsUrl": "https://www.google.com/maps?q=35.138114,33.053639",
          "lat": 35.138114,
          "lng": 33.053639
        },
        {
          "brand": "ENI",
          "address": "Λεωφ. Κυριάκου Μάτση Τ.Κ 8300",
          "district": "Κονιά",
          "price": 1.469,
          "mapsUrl": "https://www.google.com/maps?q=34.7740602,32.4592027",
          "lat": 34.7740602,
          "lng": 32.4592027
        },
        {
          "brand": "PETROLINA",
          "address": "Λεωφ. Αρχ. Μακαρίου Γ&#39; 18 Τ.Κ 3061",
          "district": "Λεμεσός",
          "price": 1.469,
          "mapsUrl": "https://www.google.com/maps?q=34.67531667,33.0203",
          "lat": 34.67531667,
          "lng": 33.0203
        },
        {
          "brand": "PETROLINA",
          "address": "Παλαιός Δρόμος Λεμεσού-Πάφου Τ.Κ 4607",
          "district": "Πισσούρι",
          "price": 1.469,
          "mapsUrl": "https://www.google.com/maps?q=34.675178,32.697404",
          "lat": 34.675178,
          "lng": 32.697404
        },
        {
          "brand": "PETROLINA",
          "address": "Μισιαούλη &amp; Καβάζογλου 73 Τ.Κ 3016",
          "district": "Λεμεσός",
          "price": 1.469,
          "mapsUrl": "https://www.google.com/maps?q=34.673561,33.022080",
          "lat": 34.673561,
          "lng": 33.02208
        },
        {
          "brand": "PETROLINA",
          "address": "Φώτη Πίττα 85 Τ.Κ 5350",
          "district": "Φρέναρος",
          "price": 1.469,
          "mapsUrl": "https://www.google.com/maps/search/%CE%A6%CF%8E%CF%84%CE%B7%20%CE%A0%CE%AF%CF%84%CF%84%CE%B1%2085%20%CE%A4.%CE%9A%205350",
          "lat": null,
          "lng": null
        },
        {
          "brand": "PETROLINA",
          "address": "Τεύκρου Ανθία 54 Τ.Κ 5330",
          "district": "Αγία Νάπα",
          "price": 1.469,
          "mapsUrl": "https://www.google.com/maps?q=34.993175,33.990390",
          "lat": 34.993175,
          "lng": 33.99039
        },
        {
          "brand": "PETROLINA",
          "address": "Λεωφ. Λεμεσού 9 Τ.Κ 2112",
          "district": "Αγλαντζιά",
          "price": 1.469,
          "mapsUrl": "https://www.google.com/maps?q=35.153083,33.375177",
          "lat": 35.153083,
          "lng": 33.375177
        },
        {
          "brand": "PETROLINA",
          "address": "Αγίας Φυλάξεως 109 Τ.Κ 3087",
          "district": "Λεμεσός",
          "price": 1.469,
          "mapsUrl": "https://www.google.com/maps?q=34.6921,33.0352",
          "lat": 34.6921,
          "lng": 33.0352
        },
        {
          "brand": "PETROLINA",
          "address": "Αρχ. Μακαρίου Γ΄ 17 Τ.Κ 2800",
          "district": "Κακοπετριά",
          "price": 1.469,
          "mapsUrl": "https://www.google.com/maps?q=34.991233,32.902827",
          "lat": 34.991233,
          "lng": 32.902827
        },
        {
          "brand": "PETROLINA",
          "address": "Λεωφ. Νίκης 1 Τ.Κ 1086",
          "district": "Λευκωσία",
          "price": 1.469,
          "mapsUrl": "https://www.google.com/maps?q=35.162387,33.358870",
          "lat": 35.162387,
          "lng": 33.35887
        },
        {
          "brand": "PETROLINA",
          "address": "Αγίας Φυλάξεως 231 Τ.Κ 3116",
          "district": "Λεμεσός",
          "price": 1.469,
          "mapsUrl": "https://www.google.com/maps?q=34.706675,33.025237",
          "lat": 34.706675,
          "lng": 33.025237
        },
        {
          "brand": "PETROLINA",
          "address": "Λεωφ. Ευρώπης 11 Τ.Κ 8042",
          "district": "Γεροσκήπου",
          "price": 1.469,
          "mapsUrl": "https://www.google.com/maps?q=34.759422,32.434744",
          "lat": 34.759422,
          "lng": 32.434744
        },
        {
          "brand": "PETROLINA",
          "address": "Αγίας Θέκλης 60 Τ.Κ 5390",
          "district": "Σωτήρα",
          "price": 1.469,
          "mapsUrl": "https://www.google.com/maps?q=35.021017,33.945449",
          "lat": 35.021017,
          "lng": 33.945449
        },
        {
          "brand": "PETROLINA",
          "address": "Λεωφ. Γ.Γρίβα Διγενή 42 Τ.Κ 5281",
          "district": "Παραλίμνι",
          "price": 1.469,
          "mapsUrl": "https://www.google.com/maps?q=35.04151667,33.98011667",
          "lat": 35.04151667,
          "lng": 33.98011667
        },
        {
          "brand": "PETROLINA",
          "address": "Λεωφ. Γ.Γρίβα Διγενή Τ.Κ 5523",
          "district": "Δασάκι της Άχνας",
          "price": 1.469,
          "mapsUrl": "https://www.google.com/maps?q=35.02498333,33.77823333",
          "lat": 35.02498333,
          "lng": 33.77823333
        },
        {
          "brand": "PETROLINA",
          "address": "Γιάννου Κρανιδιώτη 34, (Εκάλι, Αγία Φύλα) Τ.Κ -",
          "district": "Λεμεσός",
          "price": 1.469,
          "mapsUrl": "https://www.google.com/maps/search/%CE%93%CE%B9%CE%AC%CE%BD%CE%BD%CE%BF%CF%85%20%CE%9A%CF%81%CE%B1%CE%BD%CE%B9%CE%B4%CE%B9%CF%8E%CF%84%CE%B7%2034%2C%20(%CE%95%CE%BA%CE%AC%CE%BB%CE%B9%2C%20%CE%91%CE%B3%CE%AF%CE%B1%20%CE%A6%CF%8D%CE%BB%CE%B1)%20%CE%A4.%CE%9A%20-",
          "lat": null,
          "lng": null
        },
        {
          "brand": "PETROLINA",
          "address": "Γεώργιου Χ&quot; Χαραλάμπους 58 Τ.Κ 7700",
          "district": "Λεύκαρα",
          "price": 1.469,
          "mapsUrl": "https://www.google.com/maps?q=34.86518333,33.30683333",
          "lat": 34.86518333,
          "lng": 33.30683333
        },
        {
          "brand": "PETROLINA",
          "address": "Λεώφ. Λεμεσού 5 Τ.Κ 4525",
          "district": "Μονή",
          "price": 1.469,
          "mapsUrl": "https://www.google.com/maps?q=34.721313,33.199702",
          "lat": 34.721313,
          "lng": 33.199702
        },
        {
          "brand": "PETROLINA",
          "address": "Πάφου 33 Τ.Κ 3052",
          "district": "Λεμεσός",
          "price": 1.469,
          "mapsUrl": "https://www.google.com/maps?q=34.674485,33.013897",
          "lat": 34.674485,
          "lng": 33.013897
        },
        {
          "brand": "PETROLINA",
          "address": "Κιλκής 1, Πετρολίνα HQ Τ.Κ 6015",
          "district": "Λάρνακα",
          "price": 1.469,
          "mapsUrl": "https://www.google.com/maps?q=34.92283333,33.6335",
          "lat": 34.92283333,
          "lng": 33.6335
        },
        {
          "brand": "PETROLINA",
          "address": "Λεωφ. Αρχ. Μακαρίου Γ΄ 23 Τ.Κ 6017",
          "district": "Λάρνακα",
          "price": 1.469,
          "mapsUrl": "https://www.google.com/maps?q=34.919501,33.636545",
          "lat": 34.919501,
          "lng": 33.636545
        },
        {
          "brand": "PETROLINA",
          "address": "Κάθετος Δρόμος Νέου Λιμανιού Τ.Κ 4150",
          "district": "Κάτω Πολεμίδια",
          "price": 1.469,
          "mapsUrl": "https://www.google.com/maps?q=34.6754556,32.988516",
          "lat": 34.6754556,
          "lng": 32.988516
        },
        {
          "brand": "PETROLINA",
          "address": "Δρόμος Αμιάντου – Καρβουνά Τ.Κ 4876",
          "district": "Κυπερούντα",
          "price": 1.469,
          "mapsUrl": "https://www.google.com/maps?q=34.940097,32.931017",
          "lat": 34.940097,
          "lng": 32.931017
        },
        {
          "brand": "PETROLINA",
          "address": "Ευαγόρα Παλληκαρίδη 105 Τ.Κ 8010",
          "district": "Πάφος",
          "price": 1.469,
          "mapsUrl": "https://www.google.com/maps?q=34.7798,32.4248",
          "lat": 34.7798,
          "lng": 32.4248
        },
        {
          "brand": "PETROLINA",
          "address": "Λεωφ. Αρχ. Μακαρίου Γ&#39; 105 Τ.Κ 8200",
          "district": "Γεροσκήπου",
          "price": 1.469,
          "mapsUrl": "https://www.google.com/maps?q=34.758,32.45901667",
          "lat": 34.758,
          "lng": 32.45901667
        },
        {
          "brand": "PETROLINA",
          "address": "Διεθνές Αεροδρόμιο Λάρνακας Τ.Κ 6650",
          "district": "Λάρνακα",
          "price": 1.469,
          "mapsUrl": "https://www.google.com/maps?q=34.873222,33.605219",
          "lat": 34.873222,
          "lng": 33.605219
        },
        {
          "brand": "EKO",
          "address": "Λεωφ. Αρχ. Μακαρίου Γ&#39; 162 Τ.Κ 3026",
          "district": "Λεμεσός",
          "price": 1.469,
          "mapsUrl": "https://www.google.com/maps?q=34.687006,33.040061",
          "lat": 34.687006,
          "lng": 33.040061
        },
        {
          "brand": "EKO",
          "address": "Λεωφόρος Αρχ. Μιχαήλ 17 Τ.Κ 2057",
          "district": "Στρόβολος",
          "price": 1.469,
          "mapsUrl": "https://www.google.com/maps?q=35.156596,33.335618",
          "lat": 35.156596,
          "lng": 33.335618
        },
        {
          "brand": "EKO",
          "address": "Αγίου Γεωργίου 99 Τ.Κ 4180",
          "district": "Ύψωνας",
          "price": 1.469,
          "mapsUrl": "https://www.google.com/maps?q=34.682444,32.952385",
          "lat": 34.682444,
          "lng": 32.952385
        }
      ]
    },
    "98": {
      "label": "Unleaded 98",
      "stations": [
        {
          "brand": "FILL N GO",
          "address": "Λεωφ. Λάρνακος 184 Τ.Κ 2103",
          "district": "Αγλαντζιά",
          "price": 1.468,
          "mapsUrl": "https://www.google.com/maps/search/%CE%9B%CE%B5%CF%89%CF%86.%20%CE%9B%CE%AC%CF%81%CE%BD%CE%B1%CE%BA%CE%BF%CF%82%20184%20%CE%A4.%CE%9A%202103",
          "lat": null,
          "lng": null
        },
        {
          "brand": "FILL N GO",
          "address": "Σταδίου 9 (Χαλεπιανές) Τ.Κ 2571",
          "district": "Πέρα Χωριό Νήσου",
          "price": 1.468,
          "mapsUrl": "https://www.google.com/maps?q=35.0533941,33.3820345",
          "lat": 35.0533941,
          "lng": 33.3820345
        },
        {
          "brand": "EKO",
          "address": "Γεωργίου Καλογεροπούλου 50 Τ.Κ 4007",
          "district": "Μέσα Γειτονιά",
          "price": 1.498,
          "mapsUrl": "https://www.google.com/maps?q=34.708686,33.038429",
          "lat": 34.708686,
          "lng": 33.038429
        },
        {
          "brand": "EKO",
          "address": "Ελευθερίας 27 Τ.Κ 7102",
          "district": "Αραδίππου",
          "price": 1.498,
          "mapsUrl": "https://www.google.com/maps?q=34.935446,33.59272",
          "lat": 34.935446,
          "lng": 33.59272
        },
        {
          "brand": "EKO",
          "address": "Κυριάκου Μάτση 100 Τ.Κ 7102",
          "district": "Αραδίππου",
          "price": 1.499,
          "mapsUrl": "https://www.google.com/maps?q=34.939014,33.601698",
          "lat": 34.939014,
          "lng": 33.601698
        },
        {
          "brand": "EKO",
          "address": "Λεωφ. Λεμεσού 21, Πέρα Χωριό Τ.Κ 2572",
          "district": "Πέρα Χωριό Νήσου",
          "price": 1.5,
          "mapsUrl": "https://www.google.com/maps?q=35.008912,33.39358",
          "lat": 35.008912,
          "lng": 33.39358
        },
        {
          "brand": "EKO",
          "address": "Αρχ. Μακαρίου Γ΄ 42, Πέρα Χωριό Τ.Κ 2572",
          "district": "Πέρα Χωριό Νήσου",
          "price": 1.5,
          "mapsUrl": "https://www.google.com/maps?q=35.015708,33.401891",
          "lat": 35.015708,
          "lng": 33.401891
        },
        {
          "brand": "PETROLINA",
          "address": "Λεωφ. Γιώργου Χριστοδουλίδη (Νέο ΓΣΖ) Τ.Κ 6043",
          "district": "Λάρνακα",
          "price": 1.504,
          "mapsUrl": "https://www.google.com/maps?q=34.92536667,33.60203333",
          "lat": 34.92536667,
          "lng": 33.60203333
        },
        {
          "brand": "EKO",
          "address": "Λεωφ. Δημοκρατίας 54 Τ.Κ 2034",
          "district": "Στρόβολος",
          "price": 1.504,
          "mapsUrl": "https://www.google.com/maps?q=35.131505,33.361001",
          "lat": 35.131505,
          "lng": 33.361001
        },
        {
          "brand": "EKO",
          "address": "Γωνία Ναυαρίνου 2 &amp; Ταγματάρχου Πουλίου Τ.Κ 1100",
          "district": "Λευκωσία",
          "price": 1.504,
          "mapsUrl": "https://www.google.com/maps?q=35.171615,33.345687",
          "lat": 35.171615,
          "lng": 33.345687
        },
        {
          "brand": "EKO",
          "address": "Λεωφ. Αναλιόντα 155 Τ.Κ 2480",
          "district": "Τσέρι",
          "price": 1.504,
          "mapsUrl": "https://www.google.com/maps?q=35.053153,33.325129",
          "lat": 35.053153,
          "lng": 33.325129
        },
        {
          "brand": "EKO",
          "address": "Λεωφ. Λουκή Ακρίτα 1 Τ.Κ 1100",
          "district": "Λευκωσία",
          "price": 1.504,
          "mapsUrl": "https://www.google.com/maps?q=35.17265,33.350405",
          "lat": 35.17265,
          "lng": 33.350405
        },
        {
          "brand": "EKO",
          "address": "Μάρκου Δράκου 1 Τ.Κ 5510",
          "district": "Αυγόρου",
          "price": 1.504,
          "mapsUrl": "https://www.google.com/maps?q=35.04172,33.840063",
          "lat": 35.04172,
          "lng": 33.840063
        },
        {
          "brand": "EKO",
          "address": "Λεωφ. Κυριάκου Μάτση 22 Τ.Κ 2408",
          "district": "Έγκωμη",
          "price": 1.504,
          "mapsUrl": "https://www.google.com/maps?q=35.168024,33.32996",
          "lat": 35.168024,
          "lng": 33.32996
        },
        {
          "brand": "EKO",
          "address": "Λεωφ. Αγλαντζιάς 35 Τ.Κ 2108",
          "district": "Αγλαντζιά",
          "price": 1.504,
          "mapsUrl": "https://www.google.com/maps?q=35.156854,33.389026",
          "lat": 35.156854,
          "lng": 33.389026
        },
        {
          "brand": "EKO",
          "address": "Πάφου 11 Τ.Κ 3052",
          "district": "Λεμεσός",
          "price": 1.504,
          "mapsUrl": "https://www.google.com/maps?q=34.673891,33.015811",
          "lat": 34.673891,
          "lng": 33.015811
        },
        {
          "brand": "EKO",
          "address": "Λεωφ. Αθαλάσσας 152 Τ.Κ 2024",
          "district": "Δασούπολη",
          "price": 1.504,
          "mapsUrl": "https://www.google.com/maps?q=35.141992,33.368785",
          "lat": 35.141992,
          "lng": 33.368785
        },
        {
          "brand": "EKO",
          "address": "Παραλιμνίου 56 Τ.Κ 5311",
          "district": "Σωτήρα",
          "price": 1.504,
          "mapsUrl": "https://www.google.com/maps?q=35.024897,33.963177",
          "lat": 35.024897,
          "lng": 33.963177
        },
        {
          "brand": "EKO",
          "address": "Λεώφ. Δημητρίου Παπανικολή 6, Άγιοι Ανάργυροι Τ.Κ 6053",
          "district": "Λάρνακα",
          "price": 1.504,
          "mapsUrl": "https://www.google.com/maps?q=34.93123,33.623506",
          "lat": 34.93123,
          "lng": 33.623506
        },
        {
          "brand": "EKO",
          "address": "Λεωφ. Τσερίου 127 Στρόβολος Τ.Κ 2045",
          "district": "Στρόβολος",
          "price": 1.504,
          "mapsUrl": "https://www.google.com/maps?q=35.128667,33.33847",
          "lat": 35.128667,
          "lng": 33.33847
        },
        {
          "brand": "EKO",
          "address": "Λεωφόρος Στροβόλου 98 Τ.Κ 2325",
          "district": "Λακατάμεια",
          "price": 1.504,
          "mapsUrl": "https://www.google.com/maps?q=35.106167,33.330644",
          "lat": 35.106167,
          "lng": 33.330644
        },
        {
          "brand": "EKO",
          "address": "Αγίας Φυλάξεως 161 Τ.Κ 3083",
          "district": "Λεμεσός",
          "price": 1.504,
          "mapsUrl": "https://www.google.com/maps?q=34.697668,33.032372",
          "lat": 34.697668,
          "lng": 33.032372
        },
        {
          "brand": "EKO",
          "address": "Λεωφ. Φρ. Ρούσβελτ 29 Τ.Κ 3012",
          "district": "Λεμεσός",
          "price": 1.504,
          "mapsUrl": "https://www.google.com/maps?q=34.670055,33.030746",
          "lat": 34.670055,
          "lng": 33.030746
        },
        {
          "brand": "EKO",
          "address": "Λεωφ. Λεμεσού 7 Τ.Κ 2112",
          "district": "Αγλαντζιά",
          "price": 1.504,
          "mapsUrl": "https://www.google.com/maps?q=35.153483,33.375317",
          "lat": 35.153483,
          "lng": 33.375317
        },
        {
          "brand": "EKO",
          "address": "Λεωφ. Αρτέμιδος 29 Τ.Κ 6025",
          "district": "Λάρνακα",
          "price": 1.504,
          "mapsUrl": "https://www.google.com/maps?q=34.909094,33.629607",
          "lat": 34.909094,
          "lng": 33.629607
        },
        {
          "brand": "EKO",
          "address": "Νίκου Ευαγόρου 50 Τ.Κ 3091",
          "district": "Παλώδια",
          "price": 1.504,
          "mapsUrl": "https://www.google.com/maps?q=34.745754,32.998862",
          "lat": 34.745754,
          "lng": 32.998862
        },
        {
          "brand": "EKO",
          "address": "Γλάδστωνος 133 Τ.Κ 3032",
          "district": "Λεμεσός",
          "price": 1.504,
          "mapsUrl": "https://www.google.com/maps?q=34.684173,33.050839",
          "lat": 34.684173,
          "lng": 33.050839
        },
        {
          "brand": "EKO",
          "address": "Γ. Κρανιδιώτη 5 Τ.Κ 2220",
          "district": "Λατσιά",
          "price": 1.504,
          "mapsUrl": "https://www.google.com/maps?q=35.116846,33.377618",
          "lat": 35.116846,
          "lng": 33.377618
        },
        {
          "brand": "EKO",
          "address": "Αγίου Λουκά 7 Τ.Κ 7731",
          "district": "Σκαρίνου",
          "price": 1.504,
          "mapsUrl": "https://www.google.com/maps/search/%CE%91%CE%B3%CE%AF%CE%BF%CF%85%20%CE%9B%CE%BF%CF%85%CE%BA%CE%AC%207%20%CE%A4.%CE%9A%207731",
          "lat": null,
          "lng": null
        },
        {
          "brand": "EKO",
          "address": "Λεωφ. Σπ. Χριστοδούλου 47 Τ.Κ 1020",
          "district": "Παλλουριώτισσα",
          "price": 1.504,
          "mapsUrl": "https://www.google.com/maps?q=35.175612,33.373034",
          "lat": 35.175612,
          "lng": 33.373034
        },
        {
          "brand": "EKO",
          "address": "Λεωφ. Σπ. Κυπριανού 75 Τ.Κ 2031",
          "district": "Στρόβολος",
          "price": 1.504,
          "mapsUrl": "https://www.google.com/maps?q=35.124774,33.350359",
          "lat": 35.124774,
          "lng": 33.350359
        },
        {
          "brand": "EKO",
          "address": "Λεωφ. Αρχ. Μακαρίου Γ΄ 35 Τ.Κ 6017",
          "district": "Λάρνακα",
          "price": 1.504,
          "mapsUrl": "https://www.google.com/maps?q=34.922123,33.636282",
          "lat": 34.922123,
          "lng": 33.636282
        },
        {
          "brand": "EKO",
          "address": "Λεώφ. Αγίου Αθανασίου 42 Τ.Κ 4102",
          "district": "Άγιος Αθανάσιος",
          "price": 1.504,
          "mapsUrl": "https://www.google.com/maps?q=34.701008,33.059786",
          "lat": 34.701008,
          "lng": 33.059786
        },
        {
          "brand": "EKO",
          "address": "Οδυσσέα Γεωργίου 2 Τ.Κ 4651",
          "district": "Τραχώνι",
          "price": 1.504,
          "mapsUrl": "https://www.google.com/maps/search/%CE%9F%CE%B4%CF%85%CF%83%CF%83%CE%AD%CE%B1%20%CE%93%CE%B5%CF%89%CF%81%CE%B3%CE%AF%CE%BF%CF%85%202%20%CE%A4.%CE%9A%204651",
          "lat": null,
          "lng": null
        },
        {
          "brand": "EKO",
          "address": "Λεωφ. Τάσσου Παπαδόπουλου (δρόμος Λάρνακας - Δεκέλειας) Τ.Κ 6019",
          "district": "Λάρνακα",
          "price": 1.504,
          "mapsUrl": "https://www.google.com/maps?q=34.937023,33.640902",
          "lat": 34.937023,
          "lng": 33.640902
        },
        {
          "brand": "EKO",
          "address": "Λεωφ. Σπ. Κυπριανού 5 Τ.Κ 4155",
          "district": "Λεμεσός",
          "price": 1.504,
          "mapsUrl": "https://www.google.com/maps?q=34.686762,33.015375",
          "lat": 34.686762,
          "lng": 33.015375
        },
        {
          "brand": "EKO",
          "address": "Λεωφ. Αρχ. Μακαρίου Γ΄ 20 Τ.Κ 7080",
          "district": "Πύλα",
          "price": 1.504,
          "mapsUrl": "https://www.google.com/maps?q=34.992258,33.683025",
          "lat": 34.992258,
          "lng": 33.683025
        },
        {
          "brand": "EKO",
          "address": "Λεωφ. Γ.Γρίβα Διγενή 7 Τ.Κ 6010",
          "district": "Λάρνακα",
          "price": 1.504,
          "mapsUrl": "https://www.google.com/maps?q=34.916785,33.623624",
          "lat": 34.916785,
          "lng": 33.623624
        },
        {
          "brand": "EKO",
          "address": "Λεωφ. Δημητρίου Βικέλα 97 Τ.Κ 2037",
          "district": "Στρόβολος",
          "price": 1.504,
          "mapsUrl": "https://www.google.com/maps/search/%CE%9B%CE%B5%CF%89%CF%86.%20%CE%94%CE%B7%CE%BC%CE%B7%CF%84%CF%81%CE%AF%CE%BF%CF%85%20%CE%92%CE%B9%CE%BA%CE%AD%CE%BB%CE%B1%2097%20%CE%A4.%CE%9A%202037",
          "lat": null,
          "lng": null
        },
        {
          "brand": "EKO",
          "address": "Λεωφ. Αρχ. Μακαρίου Γ&#39; 162 Τ.Κ 3026",
          "district": "Λεμεσός",
          "price": 1.504,
          "mapsUrl": "https://www.google.com/maps?q=34.687006,33.040061",
          "lat": 34.687006,
          "lng": 33.040061
        },
        {
          "brand": "EKO",
          "address": "Λεωφ. Γρηγόρη Αυξεντίου 67, Αγία Βαρβάρα Τ.Κ 2560",
          "district": "Αγία Βαρβάρα",
          "price": 1.504,
          "mapsUrl": "https://www.google.com/maps?q=35.002166,33.380229",
          "lat": 35.002166,
          "lng": 33.380229
        },
        {
          "brand": "EKO",
          "address": "Καλαμών 21 Τ.Κ 2032",
          "district": "Στρόβολος",
          "price": 1.504,
          "mapsUrl": "https://www.google.com/maps/search/%CE%9A%CE%B1%CE%BB%CE%B1%CE%BC%CF%8E%CE%BD%2021%20%CE%A4.%CE%9A%202032",
          "lat": null,
          "lng": null
        },
        {
          "brand": "EKO",
          "address": "Λεωφ. Στασίνου Τ.Κ 1060",
          "district": "Λευκωσία",
          "price": 1.504,
          "mapsUrl": "https://www.google.com/maps?q=35.168758,33.363069",
          "lat": 35.168758,
          "lng": 33.363069
        },
        {
          "brand": "EKO",
          "address": "Λεωφ. Λάρνακος 103 Τ.Κ 2103",
          "district": "Αγλαντζιά",
          "price": 1.504,
          "mapsUrl": "https://www.google.com/maps?q=35.155545,33.398449",
          "lat": 35.155545,
          "lng": 33.398449
        },
        {
          "brand": "EKO",
          "address": "28ης Οκτωβρίου 12, Κόρνος Τ.Κ 7640",
          "district": "Κόρνος",
          "price": 1.504,
          "mapsUrl": "https://www.google.com/maps?q=34.927328,33.413823",
          "lat": 34.927328,
          "lng": 33.413823
        },
        {
          "brand": "EKO",
          "address": "Λεωφόρος Αρχ. Μιχαήλ 17 Τ.Κ 2057",
          "district": "Στρόβολος",
          "price": 1.504,
          "mapsUrl": "https://www.google.com/maps?q=35.156596,33.335618",
          "lat": 35.156596,
          "lng": 33.335618
        },
        {
          "brand": "EKO",
          "address": "Αγίου Γεωργίου 99 Τ.Κ 4180",
          "district": "Ύψωνας",
          "price": 1.504,
          "mapsUrl": "https://www.google.com/maps?q=34.682444,32.952385",
          "lat": 34.682444,
          "lng": 32.952385
        },
        {
          "brand": "EKO",
          "address": "Μαργαρίτας 45 Τ.Κ 4878",
          "district": "Πελένδρι",
          "price": 1.504,
          "mapsUrl": "https://www.google.com/maps?q=34.890934,32.957813",
          "lat": 34.890934,
          "lng": 32.957813
        },
        {
          "brand": "EKO",
          "address": "Λεωφ.Αρχ. Μακαρίου Γ&#39; 70, Αστρομερίτης Τ.Κ 2722",
          "district": "Αστρομερίτης",
          "price": 1.504,
          "mapsUrl": "https://www.google.com/maps?q=35.138374,33.051492",
          "lat": 35.138374,
          "lng": 33.051492
        },
        {
          "brand": "EKO",
          "address": "Λεωφόρος Λεμεσού 341, Πέρα Χωριό (Βιομηχανική Περιοχή Νήσου) Τ.Κ 2571",
          "district": "Πέρα Χωριό Νήσου",
          "price": 1.504,
          "mapsUrl": "https://www.google.com/maps?q=35.052276,33.387661",
          "lat": 35.052276,
          "lng": 33.387661
        },
        {
          "brand": "EKO",
          "address": "Λεωφ. Αρχ.Μακαρίου Γ&#39; 158 Τ.Κ 5380",
          "district": "Δερύνεια",
          "price": 1.504,
          "mapsUrl": "https://www.google.com/maps/search/%CE%9B%CE%B5%CF%89%CF%86.%20%CE%91%CF%81%CF%87.%CE%9C%CE%B1%CE%BA%CE%B1%CF%81%CE%AF%CE%BF%CF%85%20%CE%93%26%2339%3B%20158%20%CE%A4.%CE%9A%205380",
          "lat": null,
          "lng": null
        },
        {
          "brand": "EKO",
          "address": "Λεωφ. Αρχ.Μιχαήλ 43 (Παρισσινός) Τ.Κ 2057",
          "district": "Στρόβολος",
          "price": 1.504,
          "mapsUrl": "https://www.google.com/maps?q=35.154783,33.331971",
          "lat": 35.154783,
          "lng": 33.331971
        },
        {
          "brand": "EKO",
          "address": "Λεωφ. Σταυρού 25 Τ.Κ 2035",
          "district": "Στρόβολος",
          "price": 1.504,
          "mapsUrl": "https://www.google.com/maps?q=35.137332,33.350634",
          "lat": 35.137332,
          "lng": 33.350634
        },
        {
          "brand": "EKO",
          "address": "Γ.Γρίβα Διγενή 12 Τ.Κ 2614",
          "district": "Αρεδιού",
          "price": 1.504,
          "mapsUrl": "https://www.google.com/maps?q=35.058393,33.206986",
          "lat": 35.058393,
          "lng": 33.206986
        },
        {
          "brand": "EKO",
          "address": "Λεωφ. Σπ. Κυπριανού 28 Τ.Κ 4154",
          "district": "Κάτω Πολεμίδια",
          "price": 1.504,
          "mapsUrl": "https://www.google.com/maps?q=34.685318,33.013874",
          "lat": 34.685318,
          "lng": 33.013874
        },
        {
          "brand": "EKO",
          "address": "Λεωφ. Αρχ. Μακαρίου Γ΄ 61, Κοκκινοτριμιθιά Τ.Κ 2660",
          "district": "Κοκκινοτριμιθιά",
          "price": 1.504,
          "mapsUrl": "https://www.google.com/maps?q=35.146893,33.187866",
          "lat": 35.146893,
          "lng": 33.187866
        },
        {
          "brand": "EKO",
          "address": "Λεωφ. Δημοσθένη Σεβέρη 49 Τ.Κ 1080",
          "district": "Λευκωσία",
          "price": 1.504,
          "mapsUrl": "https://www.google.com/maps?q=35.15764,33.352016",
          "lat": 35.15764,
          "lng": 33.352016
        },
        {
          "brand": "EKO",
          "address": "Λεωφ. Σπύρου Κυπριανού 51 Τ.Κ 7040",
          "district": "Ορόκλινη",
          "price": 1.504,
          "mapsUrl": "https://www.google.com/maps?q=34.971337,33.654541",
          "lat": 34.971337,
          "lng": 33.654541
        },
        {
          "brand": "EKO",
          "address": "Λεωφ. Καντάρας 23 Τ.Κ 1037",
          "district": "Καϊμακλί",
          "price": 1.504,
          "mapsUrl": "https://www.google.com/maps?q=35.183991,33.387964",
          "lat": 35.183991,
          "lng": 33.387964
        },
        {
          "brand": "EKO",
          "address": "Λεωφ. Διγενή Ακρίτα 7-9 Τ.Κ 1055",
          "district": "Λευκωσία",
          "price": 1.504,
          "mapsUrl": "https://www.google.com/maps?q=35.170191,33.374402",
          "lat": 35.170191,
          "lng": 33.374402
        },
        {
          "brand": "EKO",
          "address": "Λεωφ. Αρχ. Μακαρίου Γ΄ 82 Τ.Κ 7550",
          "district": "Κίτι",
          "price": 1.504,
          "mapsUrl": "https://www.google.com/maps?q=34.852781,33.581026",
          "lat": 34.852781,
          "lng": 33.581026
        },
        {
          "brand": "PETROLINA",
          "address": "Λεωφ. Κυριάκου Μάτση 28, Αγ.Ομολογητές Τ.Κ 1082",
          "district": "Λευκωσία",
          "price": 1.504,
          "mapsUrl": "https://www.google.com/maps?q=35.1591,33.35478333",
          "lat": 35.1591,
          "lng": 33.35478333
        },
        {
          "brand": "EKO",
          "address": "Λεωφ. Αμμοχώστου Τ.Κ 7643",
          "district": "Καλό Χωριό Λάρνακας",
          "price": 1.508,
          "mapsUrl": "https://www.google.com/maps?q=34.927671,33.536158",
          "lat": 34.927671,
          "lng": 33.536158
        },
        {
          "brand": "EKO",
          "address": "εντός Διεθνούς Αεροδρομίου Πάφου Τ.Κ 8507",
          "district": "Τίμη",
          "price": 1.519,
          "mapsUrl": "https://www.google.com/maps?q=34.710452,32.490238",
          "lat": 34.710452,
          "lng": 32.490238
        },
        {
          "brand": "EKO",
          "address": "Μανδριά Τ.Κ 8504",
          "district": "Μανδριά",
          "price": 1.519,
          "mapsUrl": "https://www.google.com/maps?q=34.720734,32.535053",
          "lat": 34.720734,
          "lng": 32.535053
        },
        {
          "brand": "EKO",
          "address": "Σπύρου Κυπριανού και Σωτηράκη Μαρκίδη Τ.Κ 8041",
          "district": "Πάφος",
          "price": 1.519,
          "mapsUrl": "https://www.google.com/maps/search/%CE%A3%CF%80%CF%8D%CF%81%CE%BF%CF%85%20%CE%9A%CF%85%CF%80%CF%81%CE%B9%CE%B1%CE%BD%CE%BF%CF%8D%20%CE%BA%CE%B1%CE%B9%20%CE%A3%CF%89%CF%84%CE%B7%CF%81%CE%AC%CE%BA%CE%B7%20%CE%9C%CE%B1%CF%81%CE%BA%CE%AF%CE%B4%CE%B7%20%CE%A4.%CE%9A%208041",
          "lat": null,
          "lng": null
        },
        {
          "brand": "EKO",
          "address": "Λεωφ. Μιχαλάκη Κυπριανού 121 Τ.Κ 8560",
          "district": "Πέγεια",
          "price": 1.519,
          "mapsUrl": "https://www.google.com/maps?q=34.864528,32.379294",
          "lat": 34.864528,
          "lng": 32.379294
        },
        {
          "brand": "EKO",
          "address": "Λεωφ. Χλώρακας 104 - 106 Τ.Κ 8220",
          "district": "Χλώρακα",
          "price": 1.519,
          "mapsUrl": "https://www.google.com/maps/search/%CE%9B%CE%B5%CF%89%CF%86.%20%CE%A7%CE%BB%CF%8E%CF%81%CE%B1%CE%BA%CE%B1%CF%82%20104%20-%20106%20%CE%A4.%CE%9A%208220",
          "lat": null,
          "lng": null
        },
        {
          "brand": "STAROIL",
          "address": "Λεωφ. Χλώρακας 70 Τ.Κ 8220",
          "district": "Χλώρακα",
          "price": 1.519,
          "mapsUrl": "https://www.google.com/maps/search/%CE%9B%CE%B5%CF%89%CF%86.%20%CE%A7%CE%BB%CF%8E%CF%81%CE%B1%CE%BA%CE%B1%CF%82%2070%20%CE%A4.%CE%9A%208220",
          "lat": null,
          "lng": null
        },
        {
          "brand": "EKO",
          "address": "Λεώφ. Αποστόλου Παύλου 20 Τ.Κ 8046",
          "district": "Πάφος",
          "price": 1.519,
          "mapsUrl": "https://www.google.com/maps/search/%CE%9B%CE%B5%CF%8E%CF%86.%20%CE%91%CF%80%CE%BF%CF%83%CF%84%CF%8C%CE%BB%CE%BF%CF%85%20%CE%A0%CE%B1%CF%8D%CE%BB%CE%BF%CF%85%2020%20%CE%A4.%CE%9A%208046",
          "lat": null,
          "lng": null
        },
        {
          "brand": "EKO",
          "address": "Αγνοουμένων 15 Τ.Κ 4528",
          "district": "Πεντάκωμο",
          "price": 1.519,
          "mapsUrl": "https://www.google.com/maps?q=34.734273,33.223580",
          "lat": 34.734273,
          "lng": 33.22358
        },
        {
          "brand": "ESSO",
          "address": "Λεωφ. Νίκης 37 Τ.Κ 1087",
          "district": "Ακρόπολη",
          "price": 1.524,
          "mapsUrl": "https://www.google.com/maps?q=35.1565679511699,33.3580602362457",
          "lat": 35.1565679511699,
          "lng": 33.3580602362457
        },
        {
          "brand": "ENI",
          "address": "Λεωφ. Αμμοχώστου (Δρόμος Λάρνακας-Δεκέλειας) Τ.Κ 6019",
          "district": "Δρόμος Λάρνακας - Δεκέλειας",
          "price": 1.524,
          "mapsUrl": "https://www.google.com/maps?q=34.95398333,33.65163333",
          "lat": 34.95398333,
          "lng": 33.65163333
        },
        {
          "brand": "EKO",
          "address": "Λεωφ. Σαριγιάννη Τ.Κ 2831",
          "district": "Ευρύχου",
          "price": 1.524,
          "mapsUrl": "https://www.google.com/maps?q=35.070157,32.930054",
          "lat": 35.070157,
          "lng": 32.930054
        },
        {
          "brand": "PETROLINA",
          "address": "Λεωφ. Πρωταρά - Κάβο Γκρέκο 227 Τ.Κ 5295",
          "district": "Πρωταράς",
          "price": 1.524,
          "mapsUrl": "https://www.google.com/maps?q=35.027565,34.031999",
          "lat": 35.027565,
          "lng": 34.031999
        },
        {
          "brand": "PETROLINA",
          "address": "Λεωφ. Αρχ. Μακαρίου Γ΄ 79, Αστρομερίτης Τ.Κ 2722",
          "district": "Αστρομερίτης",
          "price": 1.524,
          "mapsUrl": "https://www.google.com/maps?q=35.138114,33.053639",
          "lat": 35.138114,
          "lng": 33.053639
        },
        {
          "brand": "PETROLINA",
          "address": "Κύριος Δρόμος Πεδουλά – Προδρόμου Τ.Κ 2850",
          "district": "Πεδουλάς",
          "price": 1.524,
          "mapsUrl": "https://www.google.com/maps?q=34.97021,32.82599",
          "lat": 34.97021,
          "lng": 32.82599
        },
        {
          "brand": "PETROLINA",
          "address": "Παλαιός Δρόμος Λεμεσού-Πάφου Τ.Κ 4607",
          "district": "Πισσούρι",
          "price": 1.524,
          "mapsUrl": "https://www.google.com/maps?q=34.675178,32.697404",
          "lat": 34.675178,
          "lng": 32.697404
        },
        {
          "brand": "PETROLINA",
          "address": "Λεωφ. Αρχ. Μακαρίου Γ&#39; 18 Τ.Κ 3061",
          "district": "Λεμεσός",
          "price": 1.524,
          "mapsUrl": "https://www.google.com/maps?q=34.67531667,33.0203",
          "lat": 34.67531667,
          "lng": 33.0203
        },
        {
          "brand": "ENI",
          "address": "Λεωφ. Κυριάκου Μάτση Τ.Κ 8300",
          "district": "Κονιά",
          "price": 1.524,
          "mapsUrl": "https://www.google.com/maps?q=34.7740602,32.4592027",
          "lat": 34.7740602,
          "lng": 32.4592027
        },
        {
          "brand": "PETROLINA",
          "address": "Λεώφ. Αγίου Γεωργίου Τ.Κ 8560",
          "district": "Πέγεια",
          "price": 1.524,
          "mapsUrl": "https://www.google.com/maps?q=34.87136,32.36097",
          "lat": 34.87136,
          "lng": 32.36097
        },
        {
          "brand": "PETROLINA",
          "address": "Αρχ. Μακαρίου Γ΄ 17 Τ.Κ 2800",
          "district": "Κακοπετριά",
          "price": 1.524,
          "mapsUrl": "https://www.google.com/maps?q=34.991233,32.902827",
          "lat": 34.991233,
          "lng": 32.902827
        },
        {
          "brand": "PETROLINA",
          "address": "Λεωφ. Στροβόλου 279 Τ.Κ 2048",
          "district": "Στρόβολος",
          "price": 1.524,
          "mapsUrl": "https://www.google.com/maps?q=35.128309,33.325049",
          "lat": 35.128309,
          "lng": 33.325049
        },
        {
          "brand": "PETROLINA",
          "address": "Λεωφ. Σπ. Κυπριανού 66-68 Τ.Κ 6057",
          "district": "Λάρνακα",
          "price": 1.524,
          "mapsUrl": "https://www.google.com/maps?q=34.93068333,33.62813333",
          "lat": 34.93068333,
          "lng": 33.62813333
        },
        {
          "brand": "PETROLINA",
          "address": "Μισιαούλη &amp; Καβάζογλου 73 Τ.Κ 3016",
          "district": "Λεμεσός",
          "price": 1.524,
          "mapsUrl": "https://www.google.com/maps?q=34.673561,33.022080",
          "lat": 34.673561,
          "lng": 33.02208
        },
        {
          "brand": "PETROLINA",
          "address": "Φώτη Πίττα 85 Τ.Κ 5350",
          "district": "Φρέναρος",
          "price": 1.524,
          "mapsUrl": "https://www.google.com/maps/search/%CE%A6%CF%8E%CF%84%CE%B7%20%CE%A0%CE%AF%CF%84%CF%84%CE%B1%2085%20%CE%A4.%CE%9A%205350",
          "lat": null,
          "lng": null
        },
        {
          "brand": "PETROLINA",
          "address": "Λεωφ. Αμμοχώστου 67 Τ.Κ 1048",
          "district": "Παλλουριώτισσα",
          "price": 1.524,
          "mapsUrl": "https://www.google.com/maps?q=35.168195,33.397860",
          "lat": 35.168195,
          "lng": 33.39786
        },
        {
          "brand": "PETROLINA",
          "address": "Τεύκρου Ανθία 54 Τ.Κ 5330",
          "district": "Αγία Νάπα",
          "price": 1.524,
          "mapsUrl": "https://www.google.com/maps?q=34.993175,33.990390",
          "lat": 34.993175,
          "lng": 33.99039
        },
        {
          "brand": "PETROLINA",
          "address": "Λεωφ. Λεμεσού 9 Τ.Κ 2112",
          "district": "Αγλαντζιά",
          "price": 1.524,
          "mapsUrl": "https://www.google.com/maps?q=35.153083,33.375177",
          "lat": 35.153083,
          "lng": 33.375177
        },
        {
          "brand": "PETROLINA",
          "address": "Λεωφ. Αρχ. Μακαρίου Γ΄2, Πέρα Χωριό Τ.Κ 2572",
          "district": "Πέρα Χωριό Νήσου",
          "price": 1.524,
          "mapsUrl": "https://www.google.com/maps?q=35.014335,33.394406",
          "lat": 35.014335,
          "lng": 33.394406
        },
        {
          "brand": "PETROLINA",
          "address": "Αγίας Φυλάξεως 109 Τ.Κ 3087",
          "district": "Λεμεσός",
          "price": 1.524,
          "mapsUrl": "https://www.google.com/maps?q=34.6921,33.0352",
          "lat": 34.6921,
          "lng": 33.0352
        },
        {
          "brand": "PETROLINA",
          "address": "Λεωφ. Σπ. Κυπριανού 22 Τ.Κ 2237",
          "district": "Λατσιά",
          "price": 1.524,
          "mapsUrl": "https://www.google.com/maps?q=35.1056,33.3644",
          "lat": 35.1056,
          "lng": 33.3644
        },
        {
          "brand": "PETROLINA",
          "address": "Λεωφ. Νίκης 1 Τ.Κ 1086",
          "district": "Λευκωσία",
          "price": 1.524,
          "mapsUrl": "https://www.google.com/maps?q=35.162387,33.358870",
          "lat": 35.162387,
          "lng": 33.35887
        },
        {
          "brand": "PETROLINA",
          "address": "Διεθνές Αεροδρόμιο Λάρνακας Τ.Κ 6650",
          "district": "Λάρνακα",
          "price": 1.524,
          "mapsUrl": "https://www.google.com/maps?q=34.873222,33.605219",
          "lat": 34.873222,
          "lng": 33.605219
        },
        {
          "brand": "PETROLINA",
          "address": "Κάθετος Δρόμος Νέου Λιμανιού Τ.Κ 4150",
          "district": "Κάτω Πολεμίδια",
          "price": 1.524,
          "mapsUrl": "https://www.google.com/maps?q=34.6754556,32.988516",
          "lat": 34.6754556,
          "lng": 32.988516
        },
        {
          "brand": "PETROLINA",
          "address": "Δρόμος Αμιάντου – Καρβουνά Τ.Κ 4876",
          "district": "Κυπερούντα",
          "price": 1.524,
          "mapsUrl": "https://www.google.com/maps?q=34.940097,32.931017",
          "lat": 34.940097,
          "lng": 32.931017
        },
        {
          "brand": "PETROLINA",
          "address": "Λεωφ. Τάσσου Παπαδόπουλου 7 (δίπλα από πρώην Διυλιστήριο) Τ.Κ 6059",
          "district": "Λειβάδια",
          "price": 1.524,
          "mapsUrl": "https://www.google.com/maps?q=34.941497,33.642206",
          "lat": 34.941497,
          "lng": 33.642206
        },
        {
          "brand": "PETROLINA",
          "address": "Λεωφ. Αρχ. Μακαρίου Γ&#39; 105 Τ.Κ 8200",
          "district": "Γεροσκήπου",
          "price": 1.524,
          "mapsUrl": "https://www.google.com/maps?q=34.758,32.45901667",
          "lat": 34.758,
          "lng": 32.45901667
        },
        {
          "brand": "PETROLINA",
          "address": "Ευαγόρα Παλληκαρίδη 105 Τ.Κ 8010",
          "district": "Πάφος",
          "price": 1.524,
          "mapsUrl": "https://www.google.com/maps?q=34.7798,32.4248",
          "lat": 34.7798,
          "lng": 32.4248
        },
        {
          "brand": "PETROLINA",
          "address": "Κιλκής 1, Πετρολίνα HQ Τ.Κ 6015",
          "district": "Λάρνακα",
          "price": 1.524,
          "mapsUrl": "https://www.google.com/maps?q=34.92283333,33.6335",
          "lat": 34.92283333,
          "lng": 33.6335
        }
      ]
    },
    "diesel": {
      "label": "Diesel",
      "stations": [
        {
          "brand": "PETROLINA",
          "address": "Λεωφ. Ελλάδος 65 Τ.Κ 7101",
          "district": "Αραδίππου",
          "price": 1.519,
          "mapsUrl": "https://www.google.com/maps/search/%CE%9B%CE%B5%CF%89%CF%86.%20%CE%95%CE%BB%CE%BB%CE%AC%CE%B4%CE%BF%CF%82%2065%20%CE%A4.%CE%9A%207101",
          "lat": null,
          "lng": null
        },
        {
          "brand": "SHELL",
          "address": "Λεωφ. Ελλάδος 76 Τ.Κ 7101",
          "district": "Αραδίππου",
          "price": 1.519,
          "mapsUrl": "https://www.google.com/maps?q=34.927460394756885,33.58150402848419",
          "lat": 34.927460394756885,
          "lng": 33.58150402848419
        },
        {
          "brand": "SHELL",
          "address": "Δρόμος Καλού Χωριού Λάρνακας Τ.Κ 7643",
          "district": "Καλό Χωριό Λάρνακας",
          "price": 1.519,
          "mapsUrl": "https://www.google.com/maps?q=34.91073084,33.562161",
          "lat": 34.91073084,
          "lng": 33.562161
        },
        {
          "brand": "PETROLINA",
          "address": "Λεωφ. Αμμοχώστου Τ.Κ 7643",
          "district": "Καλό Χωριό Λάρνακας",
          "price": 1.519,
          "mapsUrl": "https://www.google.com/maps?q=34.92598333,33.54103333",
          "lat": 34.92598333,
          "lng": 33.54103333
        },
        {
          "brand": "PETROLINA",
          "address": "Γιάννου Κρανιδιώτη 247 Τ.Κ 2233",
          "district": "Λατσιά",
          "price": 1.538,
          "mapsUrl": "https://www.google.com/maps?q=35.078424,33.381658",
          "lat": 35.078424,
          "lng": 33.381658
        },
        {
          "brand": "SHELL",
          "address": "Tσερίου 36 Νήσου (Χαλεπιανές) Τ.Κ 2571",
          "district": "Πέρα Χωριό Νήσου",
          "price": 1.538,
          "mapsUrl": "https://www.google.com/maps/search/T%CF%83%CE%B5%CF%81%CE%AF%CE%BF%CF%85%2036%20%CE%9D%CE%AE%CF%83%CE%BF%CF%85%20(%CE%A7%CE%B1%CE%BB%CE%B5%CF%80%CE%B9%CE%B1%CE%BD%CE%AD%CF%82)%20%CE%A4.%CE%9A%202571",
          "lat": null,
          "lng": null
        },
        {
          "brand": "SHELL",
          "address": "Λεωφ. Αμμοχώστου 57 Τ.Κ 1016",
          "district": "Παλλουριώτισσα",
          "price": 1.538,
          "mapsUrl": "https://www.google.com/maps?q=35.170154,33.397329",
          "lat": 35.170154,
          "lng": 33.397329
        },
        {
          "brand": "ENI",
          "address": "Λεωφ. Λάρνακος 125 Τ.Κ 1048",
          "district": "Παλλουριώτισσα",
          "price": 1.538,
          "mapsUrl": "https://www.google.com/maps?q=35.1658,33.3822",
          "lat": 35.1658,
          "lng": 33.3822
        },
        {
          "brand": "FILL N GO",
          "address": "Λεωφ. Λάρνακος 184 Τ.Κ 2103",
          "district": "Αγλαντζιά",
          "price": 1.538,
          "mapsUrl": "https://www.google.com/maps/search/%CE%9B%CE%B5%CF%89%CF%86.%20%CE%9B%CE%AC%CF%81%CE%BD%CE%B1%CE%BA%CE%BF%CF%82%20184%20%CE%A4.%CE%9A%202103",
          "lat": null,
          "lng": null
        },
        {
          "brand": "FILL N GO",
          "address": "Σταδίου 9 (Χαλεπιανές) Τ.Κ 2571",
          "district": "Πέρα Χωριό Νήσου",
          "price": 1.538,
          "mapsUrl": "https://www.google.com/maps?q=35.0533941,33.3820345",
          "lat": 35.0533941,
          "lng": 33.3820345
        },
        {
          "brand": "PETROLINA",
          "address": "Λεωφ. Τσερίου 20, Νήσου (Χαλεπιανές) Τ.Κ 2571",
          "district": "Πέρα Χωριό Νήσου",
          "price": 1.538,
          "mapsUrl": "https://www.google.com/maps?q=35.055571,33.374225",
          "lat": 35.055571,
          "lng": 33.374225
        },
        {
          "brand": "PETROLINA",
          "address": "Λεωφ. Καντάρας 78 Τ.Κ 1027",
          "district": "Καϊμακλί",
          "price": 1.538,
          "mapsUrl": "https://www.google.com/maps?q=35.185485,33.390970",
          "lat": 35.185485,
          "lng": 33.39097
        },
        {
          "brand": "PETROLINA",
          "address": "Λεωφ. Αμμοχώστου 67 Τ.Κ 1048",
          "district": "Παλλουριώτισσα",
          "price": 1.538,
          "mapsUrl": "https://www.google.com/maps?q=35.168195,33.397860",
          "lat": 35.168195,
          "lng": 33.39786
        },
        {
          "brand": "EKO",
          "address": "Λεωφ. Αγλαντζιάς 35 Τ.Κ 2108",
          "district": "Αγλαντζιά",
          "price": 1.538,
          "mapsUrl": "https://www.google.com/maps?q=35.156854,33.389026",
          "lat": 35.156854,
          "lng": 33.389026
        },
        {
          "brand": "EKO",
          "address": "Λεωφόρος Λεμεσού 341, Πέρα Χωριό (Βιομηχανική Περιοχή Νήσου) Τ.Κ 2571",
          "district": "Πέρα Χωριό Νήσου",
          "price": 1.538,
          "mapsUrl": "https://www.google.com/maps?q=35.052276,33.387661",
          "lat": 35.052276,
          "lng": 33.387661
        },
        {
          "brand": "EKO",
          "address": "Λεωφ. Διγενή Ακρίτα 7-9 Τ.Κ 1055",
          "district": "Λευκωσία",
          "price": 1.538,
          "mapsUrl": "https://www.google.com/maps?q=35.170191,33.374402",
          "lat": 35.170191,
          "lng": 33.374402
        },
        {
          "brand": "EKO",
          "address": "Λεωφ. Λάρνακος 103 Τ.Κ 2103",
          "district": "Αγλαντζιά",
          "price": 1.538,
          "mapsUrl": "https://www.google.com/maps?q=35.155545,33.398449",
          "lat": 35.155545,
          "lng": 33.398449
        },
        {
          "brand": "PETROLINA",
          "address": "Λεωφ. Λάρνακος 5 Τ.Κ 1035",
          "district": "Λευκωσία",
          "price": 1.538,
          "mapsUrl": "https://www.google.com/maps?q=35.1727,33.3726",
          "lat": 35.1727,
          "lng": 33.3726
        },
        {
          "brand": "SHELL",
          "address": "Λεωφ. Αρχ. Μακαρίου Γ΄44, Κλήρου Τ.Κ 2600",
          "district": "Κλήρου",
          "price": 1.545,
          "mapsUrl": "https://www.google.com/maps/search/%CE%9B%CE%B5%CF%89%CF%86.%20%CE%91%CF%81%CF%87.%20%CE%9C%CE%B1%CE%BA%CE%B1%CF%81%CE%AF%CE%BF%CF%85%20%CE%93%CE%8444%2C%20%CE%9A%CE%BB%CE%AE%CF%81%CE%BF%CF%85%20%CE%A4.%CE%9A%202600",
          "lat": null,
          "lng": null
        },
        {
          "brand": "SHELL",
          "address": "Λεωφ. Τσερίου 228 Τ.Κ 2044",
          "district": "Στρόβολος",
          "price": 1.545,
          "mapsUrl": "https://www.google.com/maps/search/%CE%9B%CE%B5%CF%89%CF%86.%20%CE%A4%CF%83%CE%B5%CF%81%CE%AF%CE%BF%CF%85%20228%20%CE%A4.%CE%9A%202044",
          "lat": null,
          "lng": null
        },
        {
          "brand": "SHELL",
          "address": "Λεωφ. Αρχ. Μακαρίου Γ΄ 276 Τ.Κ 2311",
          "district": "Λακατάμεια",
          "price": 1.545,
          "mapsUrl": "https://www.google.com/maps/search/%CE%9B%CE%B5%CF%89%CF%86.%20%CE%91%CF%81%CF%87.%20%CE%9C%CE%B1%CE%BA%CE%B1%CF%81%CE%AF%CE%BF%CF%85%20%CE%93%CE%84%20276%20%CE%A4.%CE%9A%202311",
          "lat": null,
          "lng": null
        },
        {
          "brand": "ESSO",
          "address": "Λεωφ. Γρηγόρη Αυξεντίου 29, Πάνω Δευτερά Τ.Κ 2460",
          "district": "Δευτερά",
          "price": 1.545,
          "mapsUrl": "https://www.google.com/maps?q=35.081014,33.273498",
          "lat": 35.081014,
          "lng": 33.273498
        },
        {
          "brand": "EKO",
          "address": "Λεωφόρος Στροβόλου 98 Τ.Κ 2325",
          "district": "Λακατάμεια",
          "price": 1.545,
          "mapsUrl": "https://www.google.com/maps?q=35.106167,33.330644",
          "lat": 35.106167,
          "lng": 33.330644
        },
        {
          "brand": "EKO",
          "address": "Γ.Γρίβα Διγενή 12 Τ.Κ 2614",
          "district": "Αρεδιού",
          "price": 1.545,
          "mapsUrl": "https://www.google.com/maps?q=35.058393,33.206986",
          "lat": 35.058393,
          "lng": 33.206986
        },
        {
          "brand": "STAROIL",
          "address": "Μεγάλου Αλεξάνδρου 46, Παλιομέτοχο Τ.Κ 2682",
          "district": "Παλιομέτοχο",
          "price": 1.545,
          "mapsUrl": "https://www.google.com/maps/search/%CE%9C%CE%B5%CE%B3%CE%AC%CE%BB%CE%BF%CF%85%20%CE%91%CE%BB%CE%B5%CE%BE%CE%AC%CE%BD%CE%B4%CF%81%CE%BF%CF%85%2046%2C%20%CE%A0%CE%B1%CE%BB%CE%B9%CE%BF%CE%BC%CE%AD%CF%84%CE%BF%CF%87%CE%BF%20%CE%A4.%CE%9A%202682",
          "lat": null,
          "lng": null
        },
        {
          "brand": "STAROIL",
          "address": "Ακανθούς 4, Πάνω Δευτερά Τ.Κ 2460",
          "district": "Δευτερά",
          "price": 1.545,
          "mapsUrl": "https://www.google.com/maps?q=35.090188221784366,33.26715483191825",
          "lat": 35.090188221784366,
          "lng": 33.26715483191825
        },
        {
          "brand": "STAROIL",
          "address": "Λεωφ. Αρχ. Μακαρίου Γ΄ 54 Τ.Κ 2324",
          "district": "Λακατάμεια",
          "price": 1.545,
          "mapsUrl": "https://www.google.com/maps/search/%CE%9B%CE%B5%CF%89%CF%86.%20%CE%91%CF%81%CF%87.%20%CE%9C%CE%B1%CE%BA%CE%B1%CF%81%CE%AF%CE%BF%CF%85%20%CE%93%CE%84%2054%20%CE%A4.%CE%9A%202324",
          "lat": null,
          "lng": null
        },
        {
          "brand": "STAROIL",
          "address": "Λεωφ. Αγίου Γεωργίου 107 Τ.Κ 2304",
          "district": "Λακατάμεια",
          "price": 1.545,
          "mapsUrl": "https://www.google.com/maps/search/%CE%9B%CE%B5%CF%89%CF%86.%20%CE%91%CE%B3%CE%AF%CE%BF%CF%85%20%CE%93%CE%B5%CF%89%CF%81%CE%B3%CE%AF%CE%BF%CF%85%20107%20%CE%A4.%CE%9A%202304",
          "lat": null,
          "lng": null
        },
        {
          "brand": "STAROIL",
          "address": "Κώστα Μισιαούλη 168 Τ.Κ 2480",
          "district": "Τσέρι",
          "price": 1.545,
          "mapsUrl": "https://www.google.com/maps/search/%CE%9A%CF%8E%CF%83%CF%84%CE%B1%20%CE%9C%CE%B9%CF%83%CE%B9%CE%B1%CE%BF%CF%8D%CE%BB%CE%B7%20168%20%CE%A4.%CE%9A%202480",
          "lat": null,
          "lng": null
        },
        {
          "brand": "STAROIL",
          "address": "Γρηγόρη Αυξεντίου 29, Πέρα Ορεινής Τ.Κ 2650",
          "district": "Πέρα Ορεινής",
          "price": 1.545,
          "mapsUrl": "https://www.google.com/maps/search/%CE%93%CF%81%CE%B7%CE%B3%CF%8C%CF%81%CE%B7%20%CE%91%CF%85%CE%BE%CE%B5%CE%BD%CF%84%CE%AF%CE%BF%CF%85%2029%2C%20%CE%A0%CE%AD%CF%81%CE%B1%20%CE%9F%CF%81%CE%B5%CE%B9%CE%BD%CE%AE%CF%82%20%CE%A4.%CE%9A%202650",
          "lat": null,
          "lng": null
        },
        {
          "brand": "STAROIL",
          "address": "Πεύκου 71 Τ.Κ 2326",
          "district": "Λακατάμεια",
          "price": 1.545,
          "mapsUrl": "https://www.google.com/maps/search/%CE%A0%CE%B5%CF%8D%CE%BA%CE%BF%CF%85%2071%20%CE%A4.%CE%9A%202326",
          "lat": null,
          "lng": null
        },
        {
          "brand": "PETROLINA",
          "address": "Λεωφ. Κυριάκου Μάτση 28, Αγ.Ομολογητές Τ.Κ 1082",
          "district": "Λευκωσία",
          "price": 1.545,
          "mapsUrl": "https://www.google.com/maps?q=35.1591,33.35478333",
          "lat": 35.1591,
          "lng": 33.35478333
        },
        {
          "brand": "EKO",
          "address": "Κυριάκου Μάτση 100 Τ.Κ 7102",
          "district": "Αραδίππου",
          "price": 1.547,
          "mapsUrl": "https://www.google.com/maps?q=34.939014,33.601698",
          "lat": 34.939014,
          "lng": 33.601698
        },
        {
          "brand": "PETROLINA",
          "address": "Λεωφ. Γιώργου Χριστοδουλίδη (Νέο ΓΣΖ) Τ.Κ 6043",
          "district": "Λάρνακα",
          "price": 1.548,
          "mapsUrl": "https://www.google.com/maps?q=34.92536667,33.60203333",
          "lat": 34.92536667,
          "lng": 33.60203333
        },
        {
          "brand": "PETROLINA",
          "address": "Λεωφ. Σπ. Κυπριανού 22 Τ.Κ 2237",
          "district": "Λατσιά",
          "price": 1.548,
          "mapsUrl": "https://www.google.com/maps?q=35.1056,33.3644",
          "lat": 35.1056,
          "lng": 33.3644
        },
        {
          "brand": "SHELL",
          "address": "Δρόμος Αραδίππου - Αβδελλερού Τ.Κ",
          "district": "Αβδελλερό",
          "price": 1.549,
          "mapsUrl": "https://www.google.com/maps?q=34.975216,33.581264",
          "lat": 34.975216,
          "lng": 33.581264
        },
        {
          "brand": "PETROLINA",
          "address": "Λεωφ. Λεμεσού, Νήσου Τ.Κ 2571",
          "district": "Πέρα Χωριό Νήσου",
          "price": 1.558,
          "mapsUrl": "https://www.google.com/maps?q=35.042400,33.387107",
          "lat": 35.0424,
          "lng": 33.387107
        },
        {
          "brand": "SHELL",
          "address": "Αρχ. Μακαρίου Γ&#39; 126 Τ.Κ 2827",
          "district": "Γαλάτα",
          "price": 1.565,
          "mapsUrl": "https://www.google.com/maps/search/%CE%91%CF%81%CF%87.%20%CE%9C%CE%B1%CE%BA%CE%B1%CF%81%CE%AF%CE%BF%CF%85%20%CE%93%26%2339%3B%20126%20%CE%A4.%CE%9A%202827",
          "lat": null,
          "lng": null
        },
        {
          "brand": "EKO",
          "address": "Γεωργίου Καλογεροπούλου 50 Τ.Κ 4007",
          "district": "Μέσα Γειτονιά",
          "price": 1.565,
          "mapsUrl": "https://www.google.com/maps?q=34.708686,33.038429",
          "lat": 34.708686,
          "lng": 33.038429
        },
        {
          "brand": "SHELL",
          "address": "28ης Οκτωβρίου 305 Τ.Κ 3105",
          "district": "Λεμεσός",
          "price": 1.566,
          "mapsUrl": "https://www.google.com/maps/search/28%CE%B7%CF%82%20%CE%9F%CE%BA%CF%84%CF%89%CE%B2%CF%81%CE%AF%CE%BF%CF%85%20305%20%CE%A4.%CE%9A%203105",
          "lat": null,
          "lng": null
        },
        {
          "brand": "SHELL",
          "address": "Φρ. Ρούσβελτ 92 Τ.Κ 3011",
          "district": "Λεμεσός",
          "price": 1.566,
          "mapsUrl": "https://www.google.com/maps/search/%CE%A6%CF%81.%20%CE%A1%CE%BF%CF%8D%CF%83%CE%B2%CE%B5%CE%BB%CF%84%2092%20%CE%A4.%CE%9A%203011",
          "lat": null,
          "lng": null
        },
        {
          "brand": "EKO",
          "address": "Λεωφ. Σαριγιάννη Τ.Κ 2831",
          "district": "Ευρύχου",
          "price": 1.566,
          "mapsUrl": "https://www.google.com/maps?q=35.070157,32.930054",
          "lat": 35.070157,
          "lng": 32.930054
        },
        {
          "brand": "SHELL",
          "address": "Αρχ. Μακαρίου Γ&#39; 11 Τ.Κ 2800",
          "district": "Κακοπετριά",
          "price": 1.566,
          "mapsUrl": "https://www.google.com/maps/search/%CE%91%CF%81%CF%87.%20%CE%9C%CE%B1%CE%BA%CE%B1%CF%81%CE%AF%CE%BF%CF%85%20%CE%93%26%2339%3B%2011%20%CE%A4.%CE%9A%202800",
          "lat": null,
          "lng": null
        },
        {
          "brand": "STAROIL",
          "address": "Δρόμος Λεμεσού - Πλατρών Τ.Κ -",
          "district": "Λεμεσός",
          "price": 1.566,
          "mapsUrl": "https://www.google.com/maps?q=34.753826,32.962765",
          "lat": 34.753826,
          "lng": 32.962765
        },
        {
          "brand": "STAROIL",
          "address": "Δημοκρατίας 40 Τ.Κ 3012",
          "district": "Λεμεσός",
          "price": 1.566,
          "mapsUrl": "https://www.google.com/maps/search/%CE%94%CE%B7%CE%BC%CE%BF%CE%BA%CF%81%CE%B1%CF%84%CE%AF%CE%B1%CF%82%2040%20%CE%A4.%CE%9A%203012",
          "lat": null,
          "lng": null
        },
        {
          "brand": "SHELL",
          "address": "Λεωφ. Λεμεσού 5 Τ.Κ 2563",
          "district": "Αλάμπρα",
          "price": 1.567,
          "mapsUrl": "https://www.google.com/maps?q=35.000550,33.397957",
          "lat": 35.00055,
          "lng": 33.397957
        },
        {
          "brand": "EKO",
          "address": "Λεωφ. Γρηγόρη Αυξεντίου 67, Αγία Βαρβάρα Τ.Κ 2560",
          "district": "Αγία Βαρβάρα",
          "price": 1.567,
          "mapsUrl": "https://www.google.com/maps?q=35.002166,33.380229",
          "lat": 35.002166,
          "lng": 33.380229
        },
        {
          "brand": "STAROIL",
          "address": "Λεώφ. Μητροπολίτη Χρύσανθου Σαριγιάννη 110 Τ.Κ 2831",
          "district": "Ευρύχου",
          "price": 1.567,
          "mapsUrl": "https://www.google.com/maps/search/%CE%9B%CE%B5%CF%8E%CF%86.%20%CE%9C%CE%B7%CF%84%CF%81%CE%BF%CF%80%CE%BF%CE%BB%CE%AF%CF%84%CE%B7%20%CE%A7%CF%81%CF%8D%CF%83%CE%B1%CE%BD%CE%B8%CE%BF%CF%85%20%CE%A3%CE%B1%CF%81%CE%B9%CE%B3%CE%B9%CE%AC%CE%BD%CE%BD%CE%B7%20110%20%CE%A4.%CE%9A%202831",
          "lat": null,
          "lng": null
        },
        {
          "brand": "ESSO",
          "address": "Λεωφ. Νίκης 37 Τ.Κ 1087",
          "district": "Ακρόπολη",
          "price": 1.568,
          "mapsUrl": "https://www.google.com/maps?q=35.1565679511699,33.3580602362457",
          "lat": 35.1565679511699,
          "lng": 33.3580602362457
        },
        {
          "brand": "SHELL",
          "address": "Λεωφ. Αμμοχώστου 83 Τ.Κ 5390",
          "district": "Σωτήρα",
          "price": 1.568,
          "mapsUrl": "https://www.google.com/maps?q=35.037925,33.955026",
          "lat": 35.037925,
          "lng": 33.955026
        },
        {
          "brand": "SHELL",
          "address": "1ης Απριλίου 372 Τ.Κ 5280",
          "district": "Παραλίμνι",
          "price": 1.568,
          "mapsUrl": "https://www.google.com/maps?q=35.010508,33.993417",
          "lat": 35.010508,
          "lng": 33.993417
        },
        {
          "brand": "SHELL",
          "address": "Λεωφ. Σπ. Κυπριανού 135 Τ.Κ 3083",
          "district": "Λεμεσός",
          "price": 1.568,
          "mapsUrl": "https://www.google.com/maps/search/%CE%9B%CE%B5%CF%89%CF%86.%20%CE%A3%CF%80.%20%CE%9A%CF%85%CF%80%CF%81%CE%B9%CE%B1%CE%BD%CE%BF%CF%8D%20135%20%CE%A4.%CE%9A%203083",
          "lat": null,
          "lng": null
        },
        {
          "brand": "SHELL",
          "address": "Λεωφ. Αρχ. Μακαρίου Γ΄ 57 Τ.Κ 6017",
          "district": "Λάρνακα",
          "price": 1.568,
          "mapsUrl": "https://www.google.com/maps/search/%CE%9B%CE%B5%CF%89%CF%86.%20%CE%91%CF%81%CF%87.%20%CE%9C%CE%B1%CE%BA%CE%B1%CF%81%CE%AF%CE%BF%CF%85%20%CE%93%CE%84%2057%20%CE%A4.%CE%9A%206017",
          "lat": null,
          "lng": null
        },
        {
          "brand": "SHELL",
          "address": "Λεωφ. Αρτέμιδος 67 Τ.Κ 6027",
          "district": "Λάρνακα",
          "price": 1.568,
          "mapsUrl": "https://www.google.com/maps/search/%CE%9B%CE%B5%CF%89%CF%86.%20%CE%91%CF%81%CF%84%CE%AD%CE%BC%CE%B9%CE%B4%CE%BF%CF%82%2067%20%CE%A4.%CE%9A%206027",
          "lat": null,
          "lng": null
        },
        {
          "brand": "SHELL",
          "address": "Λεωφ. Αμμοχώστου 58 Τ.Κ 5380",
          "district": "Δερύνεια",
          "price": 1.568,
          "mapsUrl": "https://www.google.com/maps/search/%CE%9B%CE%B5%CF%89%CF%86.%20%CE%91%CE%BC%CE%BC%CE%BF%CF%87%CF%8E%CF%83%CF%84%CE%BF%CF%85%2058%20%CE%A4.%CE%9A%205380",
          "lat": null,
          "lng": null
        },
        {
          "brand": "ENI",
          "address": "Λεωφ. Αμμοχώστου (Δρόμος Λάρνακας-Δεκέλειας) Τ.Κ 6019",
          "district": "Δρόμος Λάρνακας - Δεκέλειας",
          "price": 1.568,
          "mapsUrl": "https://www.google.com/maps?q=34.95398333,33.65163333",
          "lat": 34.95398333,
          "lng": 33.65163333
        },
        {
          "brand": "PETROLINA",
          "address": "Φρ. Ρούσβελτ 245 Τ.Κ 3046",
          "district": "Λεμεσός",
          "price": 1.568,
          "mapsUrl": "https://www.google.com/maps?q=34.65851667,33.0028",
          "lat": 34.65851667,
          "lng": 33.0028
        },
        {
          "brand": "PETROLINA",
          "address": "Λεωφ. Τάσσου Παπαδόπουλου 7 (δίπλα από πρώην Διυλιστήριο) Τ.Κ 6059",
          "district": "Λειβάδια",
          "price": 1.568,
          "mapsUrl": "https://www.google.com/maps?q=34.941497,33.642206",
          "lat": 34.941497,
          "lng": 33.642206
        },
        {
          "brand": "PETROLINA",
          "address": "Λεωφ. Σπ. Κυπριανού 66-68 Τ.Κ 6057",
          "district": "Λάρνακα",
          "price": 1.568,
          "mapsUrl": "https://www.google.com/maps?q=34.93068333,33.62813333",
          "lat": 34.93068333,
          "lng": 33.62813333
        },
        {
          "brand": "PETROLINA",
          "address": "Λεωφ. Στροβόλου 279 Τ.Κ 2048",
          "district": "Στρόβολος",
          "price": 1.568,
          "mapsUrl": "https://www.google.com/maps?q=35.128309,33.325049",
          "lat": 35.128309,
          "lng": 33.325049
        },
        {
          "brand": "PETROLINA",
          "address": "Κύριος Δρόμος Πεδουλά – Προδρόμου Τ.Κ 2850",
          "district": "Πεδουλάς",
          "price": 1.568,
          "mapsUrl": "https://www.google.com/maps?q=34.97021,32.82599",
          "lat": 34.97021,
          "lng": 32.82599
        },
        {
          "brand": "PETROLINA",
          "address": "Λεωφ. Πρωταρά - Κάβο Γκρέκο 227 Τ.Κ 5295",
          "district": "Πρωταράς",
          "price": 1.568,
          "mapsUrl": "https://www.google.com/maps?q=35.027565,34.031999",
          "lat": 35.027565,
          "lng": 34.031999
        },
        {
          "brand": "PETROLINA",
          "address": "Λεωφ. Αρχ. Μακαρίου Γ΄ 79, Αστρομερίτης Τ.Κ 2722",
          "district": "Αστρομερίτης",
          "price": 1.568,
          "mapsUrl": "https://www.google.com/maps?q=35.138114,33.053639",
          "lat": 35.138114,
          "lng": 33.053639
        },
        {
          "brand": "ENI",
          "address": "Λεωφ. Κυριάκου Μάτση Τ.Κ 8300",
          "district": "Κονιά",
          "price": 1.568,
          "mapsUrl": "https://www.google.com/maps?q=34.7740602,32.4592027",
          "lat": 34.7740602,
          "lng": 32.4592027
        },
        {
          "brand": "PETROLINA",
          "address": "Λεωφ. Αρχ. Μακαρίου Γ&#39; 18 Τ.Κ 3061",
          "district": "Λεμεσός",
          "price": 1.568,
          "mapsUrl": "https://www.google.com/maps?q=34.67531667,33.0203",
          "lat": 34.67531667,
          "lng": 33.0203
        },
        {
          "brand": "PETROLINA",
          "address": "Παλαιός Δρόμος Λεμεσού-Πάφου Τ.Κ 4607",
          "district": "Πισσούρι",
          "price": 1.568,
          "mapsUrl": "https://www.google.com/maps?q=34.675178,32.697404",
          "lat": 34.675178,
          "lng": 32.697404
        },
        {
          "brand": "PETROLINA",
          "address": "Μισιαούλη &amp; Καβάζογλου 73 Τ.Κ 3016",
          "district": "Λεμεσός",
          "price": 1.568,
          "mapsUrl": "https://www.google.com/maps?q=34.673561,33.022080",
          "lat": 34.673561,
          "lng": 33.02208
        },
        {
          "brand": "PETROLINA",
          "address": "Φώτη Πίττα 85 Τ.Κ 5350",
          "district": "Φρέναρος",
          "price": 1.568,
          "mapsUrl": "https://www.google.com/maps/search/%CE%A6%CF%8E%CF%84%CE%B7%20%CE%A0%CE%AF%CF%84%CF%84%CE%B1%2085%20%CE%A4.%CE%9A%205350",
          "lat": null,
          "lng": null
        },
        {
          "brand": "PETROLINA",
          "address": "Τεύκρου Ανθία 54 Τ.Κ 5330",
          "district": "Αγία Νάπα",
          "price": 1.568,
          "mapsUrl": "https://www.google.com/maps?q=34.993175,33.990390",
          "lat": 34.993175,
          "lng": 33.99039
        },
        {
          "brand": "PETROLINA",
          "address": "Λεωφ. Λεμεσού 9 Τ.Κ 2112",
          "district": "Αγλαντζιά",
          "price": 1.568,
          "mapsUrl": "https://www.google.com/maps?q=35.153083,33.375177",
          "lat": 35.153083,
          "lng": 33.375177
        },
        {
          "brand": "PETROLINA",
          "address": "Αγίας Φυλάξεως 109 Τ.Κ 3087",
          "district": "Λεμεσός",
          "price": 1.568,
          "mapsUrl": "https://www.google.com/maps?q=34.6921,33.0352",
          "lat": 34.6921,
          "lng": 33.0352
        },
        {
          "brand": "PETROLINA",
          "address": "Λεωφ. Αρχ. Μακαρίου Γ΄2, Πέρα Χωριό Τ.Κ 2572",
          "district": "Πέρα Χωριό Νήσου",
          "price": 1.568,
          "mapsUrl": "https://www.google.com/maps?q=35.014335,33.394406",
          "lat": 35.014335,
          "lng": 33.394406
        },
        {
          "brand": "PETROLINA",
          "address": "Αρχ. Μακαρίου Γ΄ 17 Τ.Κ 2800",
          "district": "Κακοπετριά",
          "price": 1.568,
          "mapsUrl": "https://www.google.com/maps?q=34.991233,32.902827",
          "lat": 34.991233,
          "lng": 32.902827
        },
        {
          "brand": "PETROLINA",
          "address": "Λεωφ. Νίκης 1 Τ.Κ 1086",
          "district": "Λευκωσία",
          "price": 1.568,
          "mapsUrl": "https://www.google.com/maps?q=35.162387,33.358870",
          "lat": 35.162387,
          "lng": 33.35887
        },
        {
          "brand": "PETROLINA",
          "address": "Δρόμος Αμιάντου – Καρβουνά Τ.Κ 4876",
          "district": "Κυπερούντα",
          "price": 1.568,
          "mapsUrl": "https://www.google.com/maps?q=34.940097,32.931017",
          "lat": 34.940097,
          "lng": 32.931017
        },
        {
          "brand": "PETROLINA",
          "address": "Κάθετος Δρόμος Νέου Λιμανιού Τ.Κ 4150",
          "district": "Κάτω Πολεμίδια",
          "price": 1.568,
          "mapsUrl": "https://www.google.com/maps?q=34.6754556,32.988516",
          "lat": 34.6754556,
          "lng": 32.988516
        },
        {
          "brand": "PETROLINA",
          "address": "Λεωφ. Αρχ. Μακαρίου Γ&#39; 105 Τ.Κ 8200",
          "district": "Γεροσκήπου",
          "price": 1.568,
          "mapsUrl": "https://www.google.com/maps?q=34.758,32.45901667",
          "lat": 34.758,
          "lng": 32.45901667
        },
        {
          "brand": "PETROLINA",
          "address": "Διεθνές Αεροδρόμιο Λάρνακας Τ.Κ 6650",
          "district": "Λάρνακα",
          "price": 1.568,
          "mapsUrl": "https://www.google.com/maps?q=34.873222,33.605219",
          "lat": 34.873222,
          "lng": 33.605219
        },
        {
          "brand": "PETROLINA",
          "address": "Κιλκής 1, Πετρολίνα HQ Τ.Κ 6015",
          "district": "Λάρνακα",
          "price": 1.568,
          "mapsUrl": "https://www.google.com/maps?q=34.92283333,33.6335",
          "lat": 34.92283333,
          "lng": 33.6335
        },
        {
          "brand": "PETROLINA",
          "address": "Λεωφ. Αρχ. Μακαρίου Γ΄ 23 Τ.Κ 6017",
          "district": "Λάρνακα",
          "price": 1.568,
          "mapsUrl": "https://www.google.com/maps?q=34.919501,33.636545",
          "lat": 34.919501,
          "lng": 33.636545
        },
        {
          "brand": "PETROLINA",
          "address": "Πάφου 33 Τ.Κ 3052",
          "district": "Λεμεσός",
          "price": 1.568,
          "mapsUrl": "https://www.google.com/maps?q=34.674485,33.013897",
          "lat": 34.674485,
          "lng": 33.013897
        },
        {
          "brand": "PETROLINA",
          "address": "Λεώφ. Λεμεσού 5 Τ.Κ 4525",
          "district": "Μονή",
          "price": 1.568,
          "mapsUrl": "https://www.google.com/maps?q=34.721313,33.199702",
          "lat": 34.721313,
          "lng": 33.199702
        },
        {
          "brand": "PETROLINA",
          "address": "Γεώργιου Χ&quot; Χαραλάμπους 58 Τ.Κ 7700",
          "district": "Λεύκαρα",
          "price": 1.568,
          "mapsUrl": "https://www.google.com/maps?q=34.86518333,33.30683333",
          "lat": 34.86518333,
          "lng": 33.30683333
        },
        {
          "brand": "PETROLINA",
          "address": "Αγίας Θέκλης 60 Τ.Κ 5390",
          "district": "Σωτήρα",
          "price": 1.568,
          "mapsUrl": "https://www.google.com/maps?q=35.021017,33.945449",
          "lat": 35.021017,
          "lng": 33.945449
        },
        {
          "brand": "PETROLINA",
          "address": "Λεωφ. Γ.Γρίβα Διγενή Τ.Κ 5523",
          "district": "Δασάκι της Άχνας",
          "price": 1.568,
          "mapsUrl": "https://www.google.com/maps?q=35.02498333,33.77823333",
          "lat": 35.02498333,
          "lng": 33.77823333
        },
        {
          "brand": "PETROLINA",
          "address": "Γιάννου Κρανιδιώτη 34, (Εκάλι, Αγία Φύλα) Τ.Κ -",
          "district": "Λεμεσός",
          "price": 1.568,
          "mapsUrl": "https://www.google.com/maps/search/%CE%93%CE%B9%CE%AC%CE%BD%CE%BD%CE%BF%CF%85%20%CE%9A%CF%81%CE%B1%CE%BD%CE%B9%CE%B4%CE%B9%CF%8E%CF%84%CE%B7%2034%2C%20(%CE%95%CE%BA%CE%AC%CE%BB%CE%B9%2C%20%CE%91%CE%B3%CE%AF%CE%B1%20%CE%A6%CF%8D%CE%BB%CE%B1)%20%CE%A4.%CE%9A%20-",
          "lat": null,
          "lng": null
        },
        {
          "brand": "PETROLINA",
          "address": "Αγίας Φυλάξεως 231 Τ.Κ 3116",
          "district": "Λεμεσός",
          "price": 1.568,
          "mapsUrl": "https://www.google.com/maps?q=34.706675,33.025237",
          "lat": 34.706675,
          "lng": 33.025237
        },
        {
          "brand": "PETROLINA",
          "address": "Λεωφ. Ευρώπης 11 Τ.Κ 8042",
          "district": "Γεροσκήπου",
          "price": 1.568,
          "mapsUrl": "https://www.google.com/maps?q=34.759422,32.434744",
          "lat": 34.759422,
          "lng": 32.434744
        },
        {
          "brand": "PETROLINA",
          "address": "Λεωφ. Γ.Γρίβα Διγενή 42 Τ.Κ 5281",
          "district": "Παραλίμνι",
          "price": 1.568,
          "mapsUrl": "https://www.google.com/maps?q=35.04151667,33.98011667",
          "lat": 35.04151667,
          "lng": 33.98011667
        },
        {
          "brand": "EKO",
          "address": "Λεωφ. Αρχ.Μιχαήλ 43 (Παρισσινός) Τ.Κ 2057",
          "district": "Στρόβολος",
          "price": 1.568,
          "mapsUrl": "https://www.google.com/maps?q=35.154783,33.331971",
          "lat": 35.154783,
          "lng": 33.331971
        },
        {
          "brand": "EKO",
          "address": "Λεωφ. Σταυρού 25 Τ.Κ 2035",
          "district": "Στρόβολος",
          "price": 1.568,
          "mapsUrl": "https://www.google.com/maps?q=35.137332,33.350634",
          "lat": 35.137332,
          "lng": 33.350634
        },
        {
          "brand": "EKO",
          "address": "Λεωφ. Αρχ.Μακαρίου Γ&#39; 158 Τ.Κ 5380",
          "district": "Δερύνεια",
          "price": 1.568,
          "mapsUrl": "https://www.google.com/maps/search/%CE%9B%CE%B5%CF%89%CF%86.%20%CE%91%CF%81%CF%87.%CE%9C%CE%B1%CE%BA%CE%B1%CF%81%CE%AF%CE%BF%CF%85%20%CE%93%26%2339%3B%20158%20%CE%A4.%CE%9A%205380",
          "lat": null,
          "lng": null
        },
        {
          "brand": "EKO",
          "address": "Λεωφ. Κυριάκου Μάτση 22 Τ.Κ 2408",
          "district": "Έγκωμη",
          "price": 1.568,
          "mapsUrl": "https://www.google.com/maps?q=35.168024,33.32996",
          "lat": 35.168024,
          "lng": 33.32996
        },
        {
          "brand": "EKO",
          "address": "Λεωφ. Αρχ. Μακαρίου Γ΄ 61, Κοκκινοτριμιθιά Τ.Κ 2660",
          "district": "Κοκκινοτριμιθιά",
          "price": 1.568,
          "mapsUrl": "https://www.google.com/maps?q=35.146893,33.187866",
          "lat": 35.146893,
          "lng": 33.187866
        },
        {
          "brand": "EKO",
          "address": "Λεωφ. Δημοσθένη Σεβέρη 49 Τ.Κ 1080",
          "district": "Λευκωσία",
          "price": 1.568,
          "mapsUrl": "https://www.google.com/maps?q=35.15764,33.352016",
          "lat": 35.15764,
          "lng": 33.352016
        },
        {
          "brand": "EKO",
          "address": "Λεωφ. Σπύρου Κυπριανού 51 Τ.Κ 7040",
          "district": "Ορόκλινη",
          "price": 1.568,
          "mapsUrl": "https://www.google.com/maps?q=34.971337,33.654541",
          "lat": 34.971337,
          "lng": 33.654541
        },
        {
          "brand": "EKO",
          "address": "Λεωφ. Καντάρας 23 Τ.Κ 1037",
          "district": "Καϊμακλί",
          "price": 1.568,
          "mapsUrl": "https://www.google.com/maps?q=35.183991,33.387964",
          "lat": 35.183991,
          "lng": 33.387964
        },
        {
          "brand": "EKO",
          "address": "Λεωφ.Αρχ. Μακαρίου Γ&#39; 70, Αστρομερίτης Τ.Κ 2722",
          "district": "Αστρομερίτης",
          "price": 1.568,
          "mapsUrl": "https://www.google.com/maps?q=35.138374,33.051492",
          "lat": 35.138374,
          "lng": 33.051492
        },
        {
          "brand": "EKO",
          "address": "Λεωφ. Αρχ. Μακαρίου Γ&#39; 162 Τ.Κ 3026",
          "district": "Λεμεσός",
          "price": 1.568,
          "mapsUrl": "https://www.google.com/maps?q=34.687006,33.040061",
          "lat": 34.687006,
          "lng": 33.040061
        },
        {
          "brand": "EKO",
          "address": "28ης Οκτωβρίου 12, Κόρνος Τ.Κ 7640",
          "district": "Κόρνος",
          "price": 1.568,
          "mapsUrl": "https://www.google.com/maps?q=34.927328,33.413823",
          "lat": 34.927328,
          "lng": 33.413823
        }
      ]
    }
  }
}
